{
  "state": "Bavaria",
  "count": 60,
  "pois": [
    {
      "id": "de-bavaria-01",
      "name": "Schloss Neuschwanstein",
      "latitude": 47.5576,
      "longitude": 10.7498,
      "type": "Castle",
      "significance": 5,
      "description": "Commissioned by Ludwig II in the 19th century, this Romanesque Revival palace is one of the most famous landmarks in Germany and inspired the Disney castle.",
      "century": 19,
      "image_url": null,
      "state": "Bavaria"
    },
    {
      "id": "de-bavaria-02",
      "name": "Würzburger Residenz",
      "latitude": 49.7928,
      "longitude": 9.939,
      "type": "Castle",
      "significance": 5,
      "description": "A masterpiece of German Baroque architecture and former residence of the Würzburg Prince-Bishops, featuring a massive staircase with a ceiling fresco by Tiepolo.",
      "century": 18,
      "image_url": null,
      "state": "Bavaria"
    },
    {
      "id": "de-bavaria-03",
      "name": "Steinerne Brücke Regensburg",
      "latitude": 49.0227,
      "longitude": 12.0972,
      "type": "Historic Bridge",
      "significance": 5,
      "description": "Completed in 1146, this is Germany's oldest preserved stone bridge and was a major crossing point for the Danube for centuries.",
      "century": 12,
      "image_url": null,
      "state": "Bavaria"
    },
    {
      "id": "de-bavaria-04",
      "name": "Walhalla",
      "latitude": 49.0315,
      "longitude": 12.2241,
      "type": "Memorial",
      "significance": 4,
      "description": "A neoclassical hall of fame honoring distinguished Germans, built in the form of a Parthenon-style temple overlooking the Danube.",
      "century": 19,
      "image_url": null,
      "state": "Bavaria"
    },
    {
      "id": "de-bavaria-05",
      "name": "Bamberger Dom",
      "latitude": 49.8917,
      "longitude": 10.8869,
      "type": "Church",
      "significance": 5,
      "description": "A late Romanesque imperial cathedral known for the 'Bamberg Horseman' sculpture and the only papal grave north of the Alps.",
      "century": 13,
      "image_url": null,
      "state": "Bavaria"
    },
    {
      "id": "de-bavaria-06",
      "name": "Kaiserburg Nürnberg",
      "latitude": 49.4579,
      "longitude": 11.076,
      "type": "Castle",
      "significance": 5,
      "description": "A historic fortification that was a residence for every Holy Roman Emperor between 1050 and 1571, representing Nuremberg's importance in the Middle Ages.",
      "century": 11,
      "image_url": null,
      "state": "Bavaria"
    },
    {
      "id": "de-bavaria-07",
      "name": "Wieskirche",
      "latitude": 47.6809,
      "longitude": 10.9007,
      "type": "Church",
      "significance": 5,
      "description": "A stunning Rococo pilgrimage church in the Alpine foothills, famous for its elaborate stucco work and vibrant ceiling frescoes.",
      "century": 18,
      "image_url": null,
      "state": "Bavaria"
    },
    {
      "id": "de-bavaria-08",
      "name": "Kloster Weltenburg",
      "latitude": 48.8988,
      "longitude": 11.8202,
      "type": "Monastery",
      "significance": 4,
      "description": "Located at the Danube Gorge, this Benedictine abbey features a spectacular Asam brothers church and one of the oldest monastery breweries in the world.",
      "century": 18,
      "image_url": null,
      "state": "Bavaria"
    },
    {
      "id": "de-bavaria-09",
      "name": "Altstadt Rothenburg ob der Tauber",
      "latitude": 49.3772,
      "longitude": 10.1788,
      "type": "Old Town",
      "significance": 5,
      "description": "A remarkably well-preserved medieval town surrounded by intact defensive walls, towers, and half-timbered houses.",
      "century": 12,
      "image_url": null,
      "state": "Bavaria"
    },
    {
      "id": "de-bavaria-10",
      "name": "Schloss Herrenchiemsee",
      "latitude": 47.8603,
      "longitude": 12.3992,
      "type": "Castle",
      "significance": 4,
      "description": "Built by King Ludwig II on an island in the Chiemsee lake, this palace was intended as a replica of Versailles but remained unfinished.",
      "century": 19,
      "image_url": null,
      "state": "Bavaria"
    },
    {
      "id": "de-bavaria-11",
      "name": "Passauer Dom St. Stephan",
      "latitude": 48.5742,
      "longitude": 13.4651,
      "type": "Church",
      "significance": 4,
      "description": "A Baroque cathedral containing the world's largest cathedral organ with 17,974 pipes, situated at the confluence of three rivers.",
      "century": 17,
      "image_url": null,
      "state": "Bavaria"
    },
    {
      "id": "de-bavaria-12",
      "name": "Schloss Linderhof",
      "latitude": 47.5714,
      "longitude": 10.9608,
      "type": "Castle",
      "significance": 4,
      "description": "The smallest of the three palaces built by Ludwig II and the only one he lived to see completed, featuring an elaborate Venus Grotto.",
      "century": 19,
      "image_url": null,
      "state": "Bavaria"
    },
    {
      "id": "de-bavaria-13",
      "name": "Marienplatz München",
      "latitude": 48.1374,
      "longitude": 11.5755,
      "type": "Old Town",
      "significance": 5,
      "description": "The central square of Munich since 1158, dominated by the New Town Hall and its famous glockenspiel.",
      "century": 12,
      "image_url": null,
      "state": "Bavaria"
    },
    {
      "id": "de-bavaria-14",
      "name": "Frauenkirche München",
      "latitude": 48.1386,
      "longitude": 11.5729,
      "type": "Church",
      "significance": 5,
      "description": "A Gothic cathedral and symbol of the Bavarian capital, recognizable by its twin onion-domed towers and the 'Devil's Footstep' at the entrance.",
      "century": 15,
      "image_url": null,
      "state": "Bavaria"
    },
    {
      "id": "de-bavaria-15",
      "name": "Burg zu Burghausen",
      "latitude": 48.1583,
      "longitude": 12.8272,
      "type": "Castle",
      "significance": 5,
      "description": "At over 1,000 meters in length, this is the longest castle complex in the world, consisting of six courtyards and numerous defensive structures.",
      "century": 11,
      "image_url": null,
      "state": "Bavaria"
    },
    {
      "id": "de-bavaria-16",
      "name": "Partnachklamm",
      "latitude": 47.4686,
      "longitude": 11.1189,
      "type": "Waterfall",
      "significance": 4,
      "description": "A 700-meter long gorge in Garmisch-Partenkirchen with 80-meter high limestone walls and dramatic cascading water.",
      "century": 19,
      "image_url": null,
      "state": "Bavaria"
    },
    {
      "id": "de-bavaria-17",
      "name": "Zugspitze",
      "latitude": 47.4211,
      "longitude": 10.9851,
      "type": "Viewpoint",
      "significance": 5,
      "description": "The highest peak in Germany at 2,962 meters, offering panoramic views of the Alps across four different countries.",
      "century": 20,
      "image_url": null,
      "state": "Bavaria"
    },
    {
      "id": "de-bavaria-18",
      "name": "Königssee",
      "latitude": 47.5847,
      "longitude": 12.9772,
      "type": "Lake",
      "significance": 5,
      "description": "A deep, fjord-like emerald lake in the Berchtesgaden National Park, famous for its silent electric boats and Echo Wall.",
      "century": 19,
      "image_url": null,
      "state": "Bavaria"
    },
    {
      "id": "de-bavaria-19",
      "name": "Kloster Andechs",
      "latitude": 47.9744,
      "longitude": 11.1828,
      "type": "Brewery",
      "significance": 4,
      "description": "A Benedictine monastery and pilgrimage site known as the 'Holy Mountain' of Bavaria, famous for its traditional monastic brewery.",
      "century": 15,
      "image_url": null,
      "state": "Bavaria"
    },
    {
      "id": "de-bavaria-20",
      "name": "Befreiungshalle Kelheim",
      "latitude": 48.9111,
      "longitude": 11.8608,
      "type": "Memorial",
      "significance": 4,
      "description": "A massive neoclassical rotunda commissioned by King Ludwig I to commemorate the victory over Napoleon in the Wars of Liberation.",
      "century": 19,
      "image_url": null,
      "state": "Bavaria"
    },
    {
      "id": "de-bavaria-21",
      "name": "Fuggerei",
      "latitude": 48.3688,
      "longitude": 10.9041,
      "type": "Folklore Site",
      "significance": 5,
      "description": "The world's oldest social housing complex still in use, founded by Jakob Fugger in 1516 where the rent is still 0.88 euros per year.",
      "century": 16,
      "image_url": null,
      "state": "Bavaria"
    },
    {
      "id": "de-bavaria-22",
      "name": "Basilika Vierzehnheiligen",
      "latitude": 50.1158,
      "longitude": 11.0544,
      "type": "Church",
      "significance": 4,
      "description": "A late Baroque-Rococo basilica designed by Balthasar Neumann, dedicated to the Fourteen Holy Helpers.",
      "century": 18,
      "image_url": null,
      "state": "Bavaria"
    },
    {
      "id": "de-bavaria-23",
      "name": "Schloss Johannisburg",
      "latitude": 49.9761,
      "longitude": 9.1414,
      "type": "Castle",
      "significance": 4,
      "description": "A massive red sandstone Renaissance palace in Aschaffenburg that served as a secondary residence for the Archbishops of Mainz.",
      "century": 17,
      "image_url": null,
      "state": "Bavaria"
    },
    {
      "id": "de-bavaria-24",
      "name": "Kloster Ottobeuren",
      "latitude": 47.9414,
      "longitude": 10.3019,
      "type": "Monastery",
      "significance": 4,
      "description": "One of the most important Benedictine abbeys in Germany, known for its monumental Baroque basilica and library.",
      "century": 18,
      "image_url": null,
      "state": "Bavaria"
    },
    {
      "id": "de-bavaria-25",
      "name": "Lindau Hafeneinfahrt",
      "latitude": 47.544,
      "longitude": 9.683,
      "type": "Old Town",
      "significance": 4,
      "description": "The harbor entrance of Lindau on Lake Constance, featuring the Bavarian Lion sculpture and the southernmost lighthouse in Germany.",
      "century": 19,
      "image_url": null,
      "state": "Bavaria"
    },
    {
      "id": "de-bavaria-26",
      "name": "Limes-Thermen Weißenburg",
      "latitude": 49.0311,
      "longitude": 10.9653,
      "type": "Archaeology",
      "significance": 4,
      "description": "The remains of a Roman military bath complex located near the Raetian Limes, showcasing advanced ancient heating and plumbing.",
      "century": 2,
      "image_url": null,
      "state": "Bavaria"
    },
    {
      "id": "de-bavaria-27",
      "name": "Luisenburg-Felsenlabyrinth",
      "latitude": 50.0125,
      "longitude": 12.0069,
      "type": "Rock Formation",
      "significance": 3,
      "description": "A natural block field of granite boulders in the Fichtelgebirge, forming a unique labyrinthine hiking area.",
      "century": 18,
      "image_url": null,
      "state": "Bavaria"
    },
    {
      "id": "de-bavaria-28",
      "name": "Burgruine Wolfstein",
      "latitude": 49.2941,
      "longitude": 11.4725,
      "type": "Ruin",
      "significance": 2,
      "description": "The ruins of a high medieval hilltop castle overlooking Neumarkt, providing insights into regional fortifications of the 12th century.",
      "century": 12,
      "image_url": null,
      "state": "Bavaria"
    },
    {
      "id": "de-bavaria-29",
      "name": "Marktplatz Miltenberg",
      "latitude": 49.7,
      "longitude": 9.2555,
      "type": "Old Town",
      "significance": 4,
      "description": "A picturesque market square featuring the 'Schnatterloch' and several historic half-timbered houses often called the 'Bavarian Rothenburg'.",
      "century": 16,
      "image_url": null,
      "state": "Bavaria"
    },
    {
      "id": "de-bavaria-30",
      "name": "Schloss Seehof",
      "latitude": 49.9286,
      "longitude": 10.9411,
      "type": "Castle",
      "significance": 3,
      "description": "The former summer residence and hunting lodge of the Bamberg Prince-Bishops, featuring extensive gardens and a large water basin.",
      "century": 17,
      "image_url": null,
      "state": "Bavaria"
    },
    {
      "id": "de-bavaria-31",
      "name": "Veste Coburg",
      "latitude": 50.2644,
      "longitude": 10.9814,
      "type": "Castle",
      "significance": 4,
      "description": "Known as the 'Franconian Crown', this is one of the largest castle complexes in Germany and once housed Martin Luther.",
      "century": 13,
      "image_url": null,
      "state": "Bavaria"
    },
    {
      "id": "de-bavaria-32",
      "name": "Donaudurchbruch",
      "latitude": 48.8927,
      "longitude": 11.8344,
      "type": "Rock Formation",
      "significance": 4,
      "description": "A narrow section of the Danube valley near Kelheim where the river has cut through massive limestone rocks.",
      "century": 10,
      "image_url": null,
      "state": "Bavaria"
    },
    {
      "id": "de-bavaria-33",
      "name": "KZ-Gedenkstätte Dachau",
      "latitude": 48.2701,
      "longitude": 11.4681,
      "type": "Memorial",
      "significance": 5,
      "description": "The site of the first Nazi concentration camp, preserved as a memorial and museum to honor the victims and educate visitors.",
      "century": 20,
      "image_url": null,
      "state": "Bavaria"
    },
    {
      "id": "de-bavaria-34",
      "name": "Kloster Ettal",
      "latitude": 47.5684,
      "longitude": 11.0941,
      "type": "Monastery",
      "significance": 4,
      "description": "A Benedictine abbey in the Ammergau Alps known for its massive domed church and traditional production of liqueur and beer.",
      "century": 14,
      "image_url": null,
      "state": "Bavaria"
    },
    {
      "id": "de-bavaria-35",
      "name": "Residenz Ansbach",
      "latitude": 49.3019,
      "longitude": 10.575,
      "type": "Castle",
      "significance": 3,
      "description": "A former palace of the Margraves of Brandenburg-Ansbach, featuring early 18th-century state rooms and a fine collection of porcelain.",
      "century": 18,
      "image_url": null,
      "state": "Bavaria"
    },
    {
      "id": "de-bavaria-36",
      "name": "Nördlingen Stadtmauer",
      "latitude": 48.8507,
      "longitude": 10.4883,
      "type": "Old Town",
      "significance": 4,
      "description": "The only town wall in Germany that can be walked all the way around, surrounding a town built inside a meteorite crater.",
      "century": 14,
      "image_url": null,
      "state": "Bavaria"
    },
    {
      "id": "de-bavaria-37",
      "name": "Kloster Banz",
      "latitude": 50.1333,
      "longitude": 11.0003,
      "type": "Monastery",
      "significance": 3,
      "description": "A former Benedictine abbey overlooking the Main valley, now used as an educational center, known for its Baroque architecture.",
      "century": 18,
      "image_url": null,
      "state": "Bavaria"
    },
    {
      "id": "de-bavaria-38",
      "name": "Burg Trausnitz",
      "latitude": 48.5317,
      "longitude": 12.1522,
      "type": "Castle",
      "significance": 4,
      "description": "The ancestral seat of the Wittelsbach dynasty in Landshut, overlooking the city with its medieval fortifications and Renaissance interior.",
      "century": 13,
      "image_url": null,
      "state": "Bavaria"
    },
    {
      "id": "de-bavaria-39",
      "name": "Scheidegger Wasserfälle",
      "latitude": 47.5911,
      "longitude": 9.8353,
      "type": "Waterfall",
      "significance": 3,
      "description": "A series of impressive waterfalls near Lake Constance where the Rickenbach river drops over several rocky ledges.",
      "century": 10,
      "image_url": null,
      "state": "Bavaria"
    },
    {
      "id": "de-bavaria-40",
      "name": "Stiftsbibliothek Waldsassen",
      "latitude": 50.0044,
      "longitude": 12.3083,
      "type": "Monastery",
      "significance": 4,
      "description": "A magnificent Cistercian abbey library featuring ten life-sized wood carvings that symbolize the different facets of human vanity.",
      "century": 18,
      "image_url": null,
      "state": "Bavaria"
    },
    {
      "id": "de-bavaria-41",
      "name": "Burg Prunn",
      "latitude": 48.9506,
      "longitude": 11.7378,
      "type": "Castle",
      "significance": 3,
      "description": "A 12th-century castle perched on a sheer limestone cliff, where a famous manuscript of the Nibelungenlied was discovered.",
      "century": 12,
      "image_url": null,
      "state": "Bavaria"
    },
    {
      "id": "de-bavaria-42",
      "name": "Drachenstich-Arena",
      "latitude": 49.2114,
      "longitude": 12.8436,
      "type": "Folklore Site",
      "significance": 3,
      "description": "The site of Germany's oldest folk play in Furth im Wald, featuring a massive high-tech robotic dragon.",
      "century": 16,
      "image_url": null,
      "state": "Bavaria"
    },
    {
      "id": "de-bavaria-43",
      "name": "Hofbräuhaus am Platzl",
      "latitude": 48.1376,
      "longitude": 11.5802,
      "type": "Brewery",
      "significance": 4,
      "description": "Munich's most famous beer hall, originally founded as a royal brewery for the Duke of Bavaria.",
      "century": 16,
      "image_url": null,
      "state": "Bavaria"
    },
    {
      "id": "de-bavaria-44",
      "name": "Kuchlbauer-Turm",
      "latitude": 48.8322,
      "longitude": 11.8441,
      "type": "Brewery",
      "significance": 3,
      "description": "A unique 35-meter tall tower designed by Friedensreich Hundertwasser, located at the Kuchlbauer Brewery in Abensberg.",
      "century": 21,
      "image_url": null,
      "state": "Bavaria"
    },
    {
      "id": "de-bavaria-45",
      "name": "Teufelshöhle Pottenstein",
      "latitude": 49.7547,
      "longitude": 11.4191,
      "type": "Rock Formation",
      "significance": 3,
      "description": "The largest stalactite cave in Franconian Switzerland, featuring impressive natural formations and cave bear skeletons.",
      "century": 11,
      "image_url": null,
      "state": "Bavaria"
    },
    {
      "id": "de-bavaria-46",
      "name": "Maria Gern",
      "latitude": 47.6533,
      "longitude": 13.0044,
      "type": "Shrine / Chapel",
      "significance": 3,
      "description": "A small Baroque pilgrimage church offering one of the most iconic photographic views of the Watzmann massif.",
      "century": 18,
      "image_url": null,
      "state": "Bavaria"
    },
    {
      "id": "de-bavaria-47",
      "name": "Plassenburg",
      "latitude": 50.1086,
      "longitude": 11.4647,
      "type": "Castle",
      "significance": 4,
      "description": "A monumental Hohenzollern fortress in Kulmbach, housing the world's largest museum of tin soldiers.",
      "century": 12,
      "image_url": null,
      "state": "Bavaria"
    },
    {
      "id": "de-bavaria-48",
      "name": "Kloster Plankstetten",
      "latitude": 49.1172,
      "longitude": 11.4553,
      "type": "Monastery",
      "significance": 3,
      "description": "A Benedictine abbey in the Altmühltal Nature Park known for its commitment to ecological farming and traditional monastic crafts.",
      "century": 12,
      "image_url": null,
      "state": "Bavaria"
    },
    {
      "id": "de-bavaria-49",
      "name": "Gasthaus zum Riesen",
      "latitude": 49.7001,
      "longitude": 9.2547,
      "type": "Historic Inn",
      "significance": 3,
      "description": "One of the oldest inns in Germany, located in Miltenberg, which has hosted several emperors and famous historical figures.",
      "century": 16,
      "image_url": null,
      "state": "Bavaria"
    },
    {
      "id": "de-bavaria-50",
      "name": "Eibsee",
      "latitude": 47.4564,
      "longitude": 10.9922,
      "type": "Lake",
      "significance": 4,
      "description": "A crystal-clear alpine lake at the foot of the Zugspitze, created by a massive rockfall thousands of years ago.",
      "century": 10,
      "image_url": null,
      "state": "Bavaria"
    },
    {
      "id": "de-bavaria-51",
      "name": "Wendelstein",
      "latitude": 47.6719,
      "longitude": 12.0122,
      "type": "Viewpoint",
      "significance": 4,
      "description": "A prominent peak in the Mangfall Mountains accessible by the oldest rack railway in Bavaria, offering views across the Alps.",
      "century": 19,
      "image_url": null,
      "state": "Bavaria"
    },
    {
      "id": "de-bavaria-52",
      "name": "Eichstätter Dom",
      "latitude": 48.8914,
      "longitude": 11.1844,
      "type": "Church",
      "significance": 3,
      "description": "A cathedral blending Romanesque, Gothic, and Baroque styles, containing the monumental Pappenheim Altar.",
      "century": 11,
      "image_url": null,
      "state": "Bavaria"
    },
    {
      "id": "de-bavaria-53",
      "name": "Kehlsteinhaus",
      "latitude": 47.6114,
      "longitude": 13.0419,
      "type": "Viewpoint",
      "significance": 5,
      "description": "Also known as the Eagle's Nest, this Third Reich-era building sits atop a mountain ridge and is now a restaurant with somber historical significance.",
      "century": 20,
      "image_url": null,
      "state": "Bavaria"
    },
    {
      "id": "de-bavaria-54",
      "name": "Steinerne Rinne Wolfsbronn",
      "latitude": 49.0353,
      "longitude": 10.9239,
      "type": "Rock Formation",
      "significance": 2,
      "description": "A rare natural limestone channel formed by calcifying spring water flowing down a forest slope.",
      "century": 10,
      "image_url": null,
      "state": "Bavaria"
    },
    {
      "id": "de-bavaria-55",
      "name": "Burg Pottenstein",
      "latitude": 49.7719,
      "longitude": 11.4128,
      "type": "Castle",
      "significance": 3,
      "description": "The oldest castle in Franconian Switzerland, serving as a landmark on a rocky outcrop above the town.",
      "century": 11,
      "image_url": null,
      "state": "Bavaria"
    },
    {
      "id": "de-bavaria-56",
      "name": "Altes Rathaus Bamberg",
      "latitude": 49.8917,
      "longitude": 10.8869,
      "type": "Old Town",
      "significance": 5,
      "description": "An iconic town hall built on an artificial island in the river Regnitz, featuring ornate exterior frescoes.",
      "century": 15,
      "image_url": null,
      "state": "Bavaria"
    },
    {
      "id": "de-bavaria-57",
      "name": "Volkacher Mainschleife",
      "latitude": 49.8731,
      "longitude": 10.2117,
      "type": "Viewpoint",
      "significance": 3,
      "description": "The largest river bend of the Main, offering scenic views over Franconian vineyards and the pilgrimage church Maria im Weingarten.",
      "century": 10,
      "image_url": null,
      "state": "Bavaria"
    },
    {
      "id": "de-bavaria-58",
      "name": "Historische Brauereigaststätte Schlenkerla",
      "latitude": 49.8911,
      "longitude": 10.8847,
      "type": "Brewery",
      "significance": 4,
      "description": "A famous 15th-century tavern in Bamberg known for serving traditional Aecht Schlenkerla Rauchbier (smoked beer).",
      "century": 15,
      "image_url": null,
      "state": "Bavaria"
    },
    {
      "id": "de-bavaria-59",
      "name": "Stadtresidenz Landshut",
      "latitude": 48.5342,
      "longitude": 12.1522,
      "type": "Castle",
      "significance": 3,
      "description": "The first Renaissance palace built north of the Alps, modeled after the Palazzo Te in Mantua, Italy.",
      "century": 16,
      "image_url": null,
      "state": "Bavaria"
    },
    {
      "id": "de-bavaria-60",
      "name": "Gnadenkapelle Altötting",
      "latitude": 48.2264,
      "longitude": 12.6761,
      "type": "Shrine / Chapel",
      "significance": 5,
      "description": "The 'Lourdes of Germany', this octagonal chapel houses a 14th-century Black Madonna and the hearts of many Bavarian kings.",
      "century": 15,
      "image_url": null,
      "state": "Bavaria"
    }
  ]
}