{
  "state": "Berlin",
  "count": 60,
  "pois": [
    {
      "id": "de-berlin-001",
      "name": "Brandenburger Tor",
      "latitude": 52.5163,
      "longitude": 13.3777,
      "type": "Memorial",
      "significance": 5,
      "description": "The only remaining city gate of Berlin and a national symbol of German unity and peace. Built in the late 18th century, it stands at the end of Unter den Linden.",
      "century": 18,
      "image_url": null,
      "state": "Berlin"
    },
    {
      "id": "de-berlin-002",
      "name": "Reichstagsgebäude",
      "latitude": 52.5186,
      "longitude": 13.3761,
      "type": "Memorial",
      "significance": 5,
      "description": "The historic seat of the German Parliament featuring a modern glass dome by Norman Foster. It has been a central witness to German history since its completion in 1894.",
      "century": 19,
      "image_url": null,
      "state": "Berlin"
    },
    {
      "id": "de-berlin-003",
      "name": "Museumsinsel",
      "latitude": 52.5169,
      "longitude": 13.4019,
      "type": "Archaeology",
      "significance": 5,
      "description": "A UNESCO World Heritage site comprising five world-renowned museums on a small island in the Spree river. It houses massive archaeological collections including the Pergamon Altar.",
      "century": 19,
      "image_url": null,
      "state": "Berlin"
    },
    {
      "id": "de-berlin-004",
      "name": "Berliner Dom",
      "latitude": 52.5191,
      "longitude": 13.4011,
      "type": "Church",
      "significance": 5,
      "description": "The largest Protestant church in Germany, known for its massive dome and the Hohenzollern Crypt. The current building was completed in 1905 in Neo-Renaissance style.",
      "century": 19,
      "image_url": null,
      "state": "Berlin"
    },
    {
      "id": "de-berlin-005",
      "name": "Gendarmenmarkt",
      "latitude": 52.5136,
      "longitude": 13.3927,
      "type": "Old Town",
      "significance": 5,
      "description": "Often described as the most beautiful square in Berlin, featuring the Concert House and the twin French and German Cathedrals. It dates back to the late 17th century.",
      "century": 17,
      "image_url": null,
      "state": "Berlin"
    },
    {
      "id": "de-berlin-006",
      "name": "Nikolaiviertel",
      "latitude": 52.5167,
      "longitude": 13.4075,
      "type": "Old Town",
      "significance": 4,
      "description": "The oldest residential area in Berlin, reconstructed around the medieval St. Nicholas' Church. It retains a unique historic atmosphere despite heavy wartime damage.",
      "century": 13,
      "image_url": null,
      "state": "Berlin"
    },
    {
      "id": "de-berlin-007",
      "name": "Schloss Charlottenburg",
      "latitude": 52.5212,
      "longitude": 13.2958,
      "type": "Castle",
      "significance": 5,
      "description": "The largest palace in Berlin, originally built as a summer residence for Sophie Charlotte. It features extensive Baroque and Rococo state rooms and a vast garden.",
      "century": 17,
      "image_url": null,
      "state": "Berlin"
    },
    {
      "id": "de-berlin-008",
      "name": "Kaiser-Wilhelm-Gedächtniskirche",
      "latitude": 52.5047,
      "longitude": 13.3351,
      "type": "Ruin",
      "significance": 5,
      "description": "A ruined spire left as a memorial to peace and reconciliation following Allied bombing in WWII. A modern hexagonal bell tower and chapel stand adjacent to the ruins.",
      "century": 19,
      "image_url": null,
      "state": "Berlin"
    },
    {
      "id": "de-berlin-009",
      "name": "Siegessäule",
      "latitude": 52.5145,
      "longitude": 13.3501,
      "type": "Viewpoint",
      "significance": 4,
      "description": "The Victory Column was originally built to commemorate Prussian victories in the unification wars. Visitors can climb to the top for a panoramic view of the Tiergarten.",
      "century": 19,
      "image_url": null,
      "state": "Berlin"
    },
    {
      "id": "de-berlin-010",
      "name": "Zitadelle Spandau",
      "latitude": 52.5408,
      "longitude": 13.2136,
      "type": "Castle",
      "significance": 4,
      "description": "One of the best-preserved Renaissance military structures in Europe. It features the 13th-century Julius Tower and houses various cultural museums.",
      "century": 16,
      "image_url": null,
      "state": "Berlin"
    },
    {
      "id": "de-berlin-011",
      "name": "Schloss Köpenick",
      "latitude": 52.4439,
      "longitude": 13.5736,
      "type": "Castle",
      "significance": 4,
      "description": "A Baroque palace located on an island in the Dahme river, surrounded by a charming park. It houses the Kunstgewerbemuseum's collection of decorative arts.",
      "century": 17,
      "image_url": null,
      "state": "Berlin"
    },
    {
      "id": "de-berlin-012",
      "name": "Pfaueninsel",
      "latitude": 52.4344,
      "longitude": 13.1286,
      "type": "Folklore Site",
      "significance": 4,
      "description": "A romantic island on the Havel accessible only by ferry, famous for its free-roaming peacocks and a whimsical white castle. It is a UNESCO World Heritage site.",
      "century": 18,
      "image_url": null,
      "state": "Berlin"
    },
    {
      "id": "de-berlin-013",
      "name": "Schloss Glienicke",
      "latitude": 52.4114,
      "longitude": 13.095,
      "type": "Castle",
      "significance": 4,
      "description": "A Mediterranean-style villa designed by Karl Friedrich Schinkel for Prince Carl of Prussia. It offers views of the Glienicke Bridge and the Havel landscape.",
      "century": 19,
      "image_url": null,
      "state": "Berlin"
    },
    {
      "id": "de-berlin-014",
      "name": "Jagdschloss Grunewald",
      "latitude": 52.4674,
      "longitude": 13.2611,
      "type": "Castle",
      "significance": 4,
      "description": "The oldest surviving palace in Berlin, built in Renaissance style as a hunting lodge. It sits on the shore of Grunewaldsee and displays a fine Cranach collection.",
      "century": 16,
      "image_url": null,
      "state": "Berlin"
    },
    {
      "id": "de-berlin-015",
      "name": "Oberbaumbrücke",
      "latitude": 52.5019,
      "longitude": 13.4456,
      "type": "Historic Bridge",
      "significance": 5,
      "description": "A double-deck bridge with brick Gothic turrets connecting Friedrichshain and Kreuzberg. It became a prominent symbol of Berlin's reunification after the Wall fell.",
      "century": 19,
      "image_url": null,
      "state": "Berlin"
    },
    {
      "id": "de-berlin-016",
      "name": "East Side Gallery",
      "latitude": 52.505,
      "longitude": 13.4397,
      "type": "Memorial",
      "significance": 5,
      "description": "A 1.3-kilometer stretch of the Berlin Wall covered in murals by international artists. It serves as an open-air gallery and a memorial to freedom.",
      "century": 20,
      "image_url": null,
      "state": "Berlin"
    },
    {
      "id": "de-berlin-017",
      "name": "Checkpoint Charlie",
      "latitude": 52.5074,
      "longitude": 13.3904,
      "type": "Memorial",
      "significance": 4,
      "description": "The most famous border crossing between East and West Berlin during the Cold War. A replica of the original guard house stands at the site today.",
      "century": 20,
      "image_url": null,
      "state": "Berlin"
    },
    {
      "id": "de-berlin-018",
      "name": "Denkmal für die ermordeten Juden Europas",
      "latitude": 52.5139,
      "longitude": 13.3787,
      "type": "Memorial",
      "significance": 5,
      "description": "A massive field of 2,711 concrete slabs of varying heights, creating an uneasy atmosphere. It serves as the central Holocaust memorial in Germany.",
      "century": 21,
      "image_url": null,
      "state": "Berlin"
    },
    {
      "id": "de-berlin-019",
      "name": "Sowjetisches Ehrenmal im Treptower Park",
      "latitude": 52.4862,
      "longitude": 13.4715,
      "type": "Memorial",
      "significance": 4,
      "description": "A monumental military cemetery and memorial for the Soviet soldiers who fell during the Battle of Berlin. It features a colossal statue of a soldier with a child.",
      "century": 20,
      "image_url": null,
      "state": "Berlin"
    },
    {
      "id": "de-berlin-020",
      "name": "Teufelsberg",
      "latitude": 52.5017,
      "longitude": 13.2417,
      "type": "Viewpoint",
      "significance": 4,
      "description": "A man-made hill built from WWII rubble, formerly the site of a US listening station. It offers iconic views and is covered in extensive street art.",
      "century": 20,
      "image_url": null,
      "state": "Berlin"
    },
    {
      "id": "de-berlin-021",
      "name": "Müggelturm",
      "latitude": 52.4208,
      "longitude": 13.6231,
      "type": "Viewpoint",
      "significance": 3,
      "description": "An observation tower on the Müggelberge hills providing the best views over the lakes of southeastern Berlin. The current concrete structure dates to 1961.",
      "century": 20,
      "image_url": null,
      "state": "Berlin"
    },
    {
      "id": "de-berlin-022",
      "name": "Großer Müggelsee",
      "latitude": 52.4367,
      "longitude": 13.6331,
      "type": "Lake",
      "significance": 4,
      "description": "The largest lake in Berlin, a popular destination for water sports and recreation in the Köpenick district. It is fed by the Spree river.",
      "century": 20,
      "image_url": null,
      "state": "Berlin"
    },
    {
      "id": "de-berlin-023",
      "name": "Großer Wannsee",
      "latitude": 52.4278,
      "longitude": 13.175,
      "type": "Lake",
      "significance": 4,
      "description": "A large bight of the Havel river famous for its beach lido and the historic villas lining its shores. It is a central part of Berlin's sailing culture.",
      "century": 20,
      "image_url": null,
      "state": "Berlin"
    },
    {
      "id": "de-berlin-024",
      "name": "Tegeler See",
      "latitude": 52.5858,
      "longitude": 13.2661,
      "type": "Lake",
      "significance": 3,
      "description": "The second-largest lake in Berlin, located in the Reinickendorf district and known for its seven islands and the Greenwichpromenade.",
      "century": 20,
      "image_url": null,
      "state": "Berlin"
    },
    {
      "id": "de-berlin-025",
      "name": "Viktoriapark Wasserfall",
      "latitude": 52.4881,
      "longitude": 13.3811,
      "type": "Waterfall",
      "significance": 3,
      "description": "A man-made 24-meter waterfall in Kreuzberg, designed to mimic the landscape of the Riesengebirge. It leads up to a monument designed by Schinkel.",
      "century": 19,
      "image_url": null,
      "state": "Berlin"
    },
    {
      "id": "de-berlin-026",
      "name": "St. Marienkirche",
      "latitude": 52.5206,
      "longitude": 13.4072,
      "type": "Church",
      "significance": 4,
      "description": "One of the oldest churches in Berlin, featuring a famous 15th-century fresco titled 'The Dance of Death'. It stands near the Alexanderplatz.",
      "century": 13,
      "image_url": null,
      "state": "Berlin"
    },
    {
      "id": "de-berlin-027",
      "name": "St. Hedwigs-Kathedrale",
      "latitude": 52.5159,
      "longitude": 13.3947,
      "type": "Church",
      "significance": 4,
      "description": "The seat of the Roman Catholic Archbishop of Berlin, notable for its large copper dome inspired by the Pantheon in Rome.",
      "century": 18,
      "image_url": null,
      "state": "Berlin"
    },
    {
      "id": "de-berlin-028",
      "name": "Schloss Britz",
      "latitude": 52.4475,
      "longitude": 13.4394,
      "type": "Castle",
      "significance": 3,
      "description": "A former manor house in Neukölln, once the seat of the counts of Hertzberg. It now serves as a cultural venue with a well-preserved rose garden.",
      "century": 18,
      "image_url": null,
      "state": "Berlin"
    },
    {
      "id": "de-berlin-029",
      "name": "Dorfkirche Dahlem",
      "latitude": 52.4586,
      "longitude": 13.2847,
      "type": "Church",
      "significance": 3,
      "description": "A small, picturesque medieval stone church in the heart of the Dahlem village. It is one of the oldest sacred buildings in the city.",
      "century": 13,
      "image_url": null,
      "state": "Berlin"
    },
    {
      "id": "de-berlin-030",
      "name": "Domäne Dahlem",
      "latitude": 52.4578,
      "longitude": 13.2889,
      "type": "Folklore Site",
      "significance": 3,
      "description": "An open-air museum of agrarian history located on the site of a former knight's manor. It features historic farm buildings and traditional craft workshops.",
      "century": 16,
      "image_url": null,
      "state": "Berlin"
    },
    {
      "id": "de-berlin-031",
      "name": "Kulturbrauerei",
      "latitude": 52.5392,
      "longitude": 13.4136,
      "type": "Brewery",
      "significance": 4,
      "description": "A massive 19th-century industrial complex that was once the Schultheiss brewery. It now serves as a major cultural center with cinemas, clubs, and theaters.",
      "century": 19,
      "image_url": null,
      "state": "Berlin"
    },
    {
      "id": "de-berlin-032",
      "name": "Prater Garten",
      "latitude": 52.5401,
      "longitude": 13.4101,
      "type": "Brewery",
      "significance": 3,
      "description": "The oldest beer garden in Berlin, founded in 1837. It has survived the industrial revolution and multiple political regimes as a social hub in Prenzlauer Berg.",
      "century": 19,
      "image_url": null,
      "state": "Berlin"
    },
    {
      "id": "de-berlin-033",
      "name": "Brauhaus Lemke am Schloss",
      "latitude": 52.5214,
      "longitude": 13.2964,
      "type": "Brewery",
      "significance": 2,
      "description": "A traditional brewery and tavern located directly opposite Charlottenburg Palace, known for its local Berlin-style beers and rustic food.",
      "century": 20,
      "image_url": null,
      "state": "Berlin"
    },
    {
      "id": "de-berlin-034",
      "name": "Jungfernbrücke",
      "latitude": 52.5139,
      "longitude": 13.3994,
      "type": "Historic Bridge",
      "significance": 3,
      "description": "The oldest bridge in Berlin, a cast-iron bascule bridge spanning the Spree Canal. It is a rare survivor of the city's early engineering works.",
      "century": 18,
      "image_url": null,
      "state": "Berlin"
    },
    {
      "id": "de-berlin-035",
      "name": "Moltkebrücke",
      "latitude": 52.5217,
      "longitude": 13.3711,
      "type": "Historic Bridge",
      "significance": 3,
      "description": "A red sandstone bridge decorated with sculptures and reliefs, spanning the Spree near the main railway station. It was a site of fierce fighting in 1945.",
      "century": 19,
      "image_url": null,
      "state": "Berlin"
    },
    {
      "id": "de-berlin-036",
      "name": "Glienicker Brücke",
      "latitude": 52.4133,
      "longitude": 13.1342,
      "type": "Historic Bridge",
      "significance": 5,
      "description": "Famous as the 'Bridge of Spies' for the exchange of prisoners between East and West during the Cold War. It connects Berlin with Potsdam.",
      "century": 20,
      "image_url": null,
      "state": "Berlin"
    },
    {
      "id": "de-berlin-037",
      "name": "Berliner Fernsehturm",
      "latitude": 52.5208,
      "longitude": 13.4094,
      "type": "Viewpoint",
      "significance": 5,
      "description": "The tallest structure in Germany, built by the GDR as a symbol of socialist power. The observation deck offers 360-degree views of the entire city.",
      "century": 20,
      "image_url": null,
      "state": "Berlin"
    },
    {
      "id": "de-berlin-038",
      "name": "Flakturm Humboldthain",
      "latitude": 52.5471,
      "longitude": 13.385,
      "type": "Ruin",
      "significance": 3,
      "description": "The remains of a massive WWII anti-aircraft bunker and tower. Only partially demolished, it now provides a vantage point and a site for guided underworld tours.",
      "century": 20,
      "image_url": null,
      "state": "Berlin"
    },
    {
      "id": "de-berlin-039",
      "name": "Anhalter Bahnhof Ruine",
      "latitude": 52.5042,
      "longitude": 13.3819,
      "type": "Ruin",
      "significance": 4,
      "description": "The fragment of the portico of what was once Berlin's grandest railway station. It stands as a haunting reminder of the city's pre-war scale and wartime destruction.",
      "century": 19,
      "image_url": null,
      "state": "Berlin"
    },
    {
      "id": "de-berlin-040",
      "name": "Französischer Dom",
      "latitude": 52.5144,
      "longitude": 13.3922,
      "type": "Church",
      "significance": 4,
      "description": "Built by the Huguenot community, this church features a prominent domed tower added later. It houses the Huguenot Museum and a carillon.",
      "century": 18,
      "image_url": null,
      "state": "Berlin"
    },
    {
      "id": "de-berlin-041",
      "name": "Deutscher Dom",
      "latitude": 52.5128,
      "longitude": 13.3931,
      "type": "Church",
      "significance": 4,
      "description": "Located on Gendarmenmarkt opposite the French Cathedral, it now serves as a museum dedicated to the history of parliamentary democracy in Germany.",
      "century": 18,
      "image_url": null,
      "state": "Berlin"
    },
    {
      "id": "de-berlin-042",
      "name": "St. Nikolai-Kirche Spandau",
      "latitude": 52.5375,
      "longitude": 13.2036,
      "type": "Church",
      "significance": 3,
      "description": "A three-aisled hall church in Spandau's old town, notable for its Renaissance font and Baroque altar. It was a site of the Reformation's introduction in Brandenburg.",
      "century": 14,
      "image_url": null,
      "state": "Berlin"
    },
    {
      "id": "de-berlin-043",
      "name": "Alt-Marzahn",
      "latitude": 52.5442,
      "longitude": 13.56,
      "type": "Old Town",
      "significance": 3,
      "description": "A preserved village green within the modern Marzahn district, featuring historic farmhouses and a peaceful rural atmosphere amidst high-rise apartments.",
      "century": 14,
      "image_url": null,
      "state": "Berlin"
    },
    {
      "id": "de-berlin-044",
      "name": "Bockwindmühle Marzahn",
      "latitude": 52.5458,
      "longitude": 13.5614,
      "type": "Folklore Site",
      "significance": 2,
      "description": "A functional traditional post mill in the village of Marzahn. It is a reconstruction that demonstrates historic milling techniques to visitors.",
      "century": 19,
      "image_url": null,
      "state": "Berlin"
    },
    {
      "id": "de-berlin-045",
      "name": "Schloss Friedrichsfelde",
      "latitude": 52.4994,
      "longitude": 13.5236,
      "type": "Castle",
      "significance": 3,
      "description": "An early neoclassical palace located inside the Tierpark Berlin zoo. It was once a residence for Prussian nobility and now hosts concerts and exhibitions.",
      "century": 17,
      "image_url": null,
      "state": "Berlin"
    },
    {
      "id": "de-berlin-046",
      "name": "Schloss Biesdorf",
      "latitude": 52.5083,
      "longitude": 13.5556,
      "type": "Castle",
      "significance": 3,
      "description": "A late-classical villa known for its distinctive octagonal tower and red terracotta facade. It serves as a municipal gallery for urban and regional art.",
      "century": 19,
      "image_url": null,
      "state": "Berlin"
    },
    {
      "id": "de-berlin-047",
      "name": "Grunewaldturm",
      "latitude": 52.4775,
      "longitude": 13.1983,
      "type": "Viewpoint",
      "significance": 3,
      "description": "A brick Gothic Revival tower built to honor Emperor Wilhelm I. It stands on the Karlsberg hill and provides views over the Havel river landscape.",
      "century": 19,
      "image_url": null,
      "state": "Berlin"
    },
    {
      "id": "de-berlin-048",
      "name": "Gedenkstätte Berliner Mauer",
      "latitude": 52.535,
      "longitude": 13.3903,
      "type": "Memorial",
      "significance": 5,
      "description": "The central memorial site of German division, featuring a preserved section of the border fortifications and a documentation center.",
      "century": 20,
      "image_url": null,
      "state": "Berlin"
    },
    {
      "id": "de-berlin-049",
      "name": "Neue Synagoge",
      "latitude": 52.5253,
      "longitude": 13.3947,
      "type": "Shrine / Chapel",
      "significance": 4,
      "description": "A major center of Jewish life in Berlin with an iconic gilded dome. Heavily damaged during the Kristallnacht and WWII, it has been partially restored.",
      "century": 19,
      "image_url": null,
      "state": "Berlin"
    },
    {
      "id": "de-berlin-050",
      "name": "Topographie des Terrors",
      "latitude": 52.5061,
      "longitude": 13.3836,
      "type": "Memorial",
      "significance": 5,
      "description": "An outdoor and indoor history museum on the site of the former SS and Gestapo headquarters. It documents the crimes of the Nazi regime.",
      "century": 20,
      "image_url": null,
      "state": "Berlin"
    },
    {
      "id": "de-berlin-051",
      "name": "Bendlerblock",
      "latitude": 52.5075,
      "longitude": 13.3622,
      "type": "Memorial",
      "significance": 4,
      "description": "A building complex that was the headquarters of the resistance group around Claus von Stauffenberg. It now houses the Memorial to the German Resistance.",
      "century": 20,
      "image_url": null,
      "state": "Berlin"
    },
    {
      "id": "de-berlin-052",
      "name": "Franziskaner-Klosterkirche Ruin",
      "latitude": 52.5178,
      "longitude": 13.4125,
      "type": "Ruin",
      "significance": 3,
      "description": "The ruins of a Franciscan monastery church built in the 13th century. It remains one of the most important Gothic brick buildings in the city.",
      "century": 13,
      "image_url": null,
      "state": "Berlin"
    },
    {
      "id": "de-berlin-053",
      "name": "Sophienkirche",
      "latitude": 52.5256,
      "longitude": 13.4003,
      "type": "Church",
      "significance": 3,
      "description": "A Baroque parish church in the Spandauer Vorstadt, notable for its ornate tower and for being the site of a famous sermon by Martin Luther King Jr.",
      "century": 18,
      "image_url": null,
      "state": "Berlin"
    },
    {
      "id": "de-berlin-054",
      "name": "Zur letzten Instanz",
      "latitude": 52.5178,
      "longitude": 13.4147,
      "type": "Historic Inn",
      "significance": 3,
      "description": "Berlin's oldest restaurant, established in 1621. Its wood-paneled interior and historic guest list, including Napoleon, make it a landmark of Berlin culinary history.",
      "century": 17,
      "image_url": null,
      "state": "Berlin"
    },
    {
      "id": "de-berlin-055",
      "name": "Clärchens Ballhaus",
      "latitude": 52.5267,
      "longitude": 13.3961,
      "type": "Historic Inn",
      "significance": 3,
      "description": "A legendary dance hall and restaurant that has survived two world wars. Its Mirror Hall is a rare example of pre-war Berlin ballroom opulence.",
      "century": 19,
      "image_url": null,
      "state": "Berlin"
    },
    {
      "id": "de-berlin-056",
      "name": "Schloss Bellevue",
      "latitude": 52.5175,
      "longitude": 13.3531,
      "type": "Castle",
      "significance": 4,
      "description": "The official residence of the President of Germany since 1994. It was built in 1786 as a summer palace for Prince Augustus Ferdinand of Prussia.",
      "century": 18,
      "image_url": null,
      "state": "Berlin"
    },
    {
      "id": "de-berlin-057",
      "name": "Böhmisches Dorf Rixdorf",
      "latitude": 52.4739,
      "longitude": 13.4439,
      "type": "Old Town",
      "significance": 3,
      "description": "A village within the city founded by Bohemian refugees in the 18th century. It retains a cobblestone charm and hosts a famous traditional Christmas market.",
      "century": 18,
      "image_url": null,
      "state": "Berlin"
    },
    {
      "id": "de-berlin-058",
      "name": "Jüdischer Friedhof Weißensee",
      "latitude": 52.5453,
      "longitude": 13.4619,
      "type": "Memorial",
      "significance": 4,
      "description": "One of the largest and most beautiful Jewish cemeteries in Europe, featuring over 115,000 graves and impressive mausoleums in various architectural styles.",
      "century": 19,
      "image_url": null,
      "state": "Berlin"
    },
    {
      "id": "de-berlin-059",
      "name": "Grunewaldsee",
      "latitude": 52.4636,
      "longitude": 13.2647,
      "type": "Lake",
      "significance": 3,
      "description": "A forest lake located in the Grunewald forest, popular for swimming and dog walking, adjacent to Berlin's oldest hunting lodge.",
      "century": 20,
      "image_url": null,
      "state": "Berlin"
    },
    {
      "id": "de-berlin-060",
      "name": "Großer Stein",
      "latitude": 52.4286,
      "longitude": 13.6264,
      "type": "Rock Formation",
      "significance": 2,
      "description": "A massive glacial erratic boulder located near the banks of the Müggelspree. It is an ice-age monument brought here from Scandinavia by glaciers.",
      "century": 0,
      "image_url": null,
      "state": "Berlin"
    }
  ]
}