{
  "state": "Lower Saxony",
  "count": 60,
  "pois": [
    {
      "id": "de-lower-saxony-001",
      "name": "Kaiserpfalz Goslar",
      "latitude": 51.9031,
      "longitude": 10.4258,
      "type": "Castle",
      "significance": 5,
      "description": "A Romanesque imperial palace complex built between 1040 and 1050, serving as a primary seat for the Salian emperors.",
      "century": 11,
      "image_url": null,
      "state": "Lower Saxony"
    },
    {
      "id": "de-lower-saxony-002",
      "name": "Hildesheimer Dom",
      "latitude": 52.1489,
      "longitude": 9.9472,
      "type": "Church",
      "significance": 5,
      "description": "The Cathedral of the Assumption of Mary is a UNESCO World Heritage site known for its medieval bronze Bernward Doors and the 1,000-year-old rose bush.",
      "century": 11,
      "image_url": null,
      "state": "Lower Saxony"
    },
    {
      "id": "de-lower-saxony-003",
      "name": "St. Michaeliskirche Hildesheim",
      "latitude": 52.1528,
      "longitude": 9.9436,
      "type": "Church",
      "significance": 5,
      "description": "An outstanding example of Ottonian architecture, this double-choired basilica features a world-famous painted wooden ceiling from the 13th century.",
      "century": 11,
      "image_url": null,
      "state": "Lower Saxony"
    },
    {
      "id": "de-lower-saxony-004",
      "name": "Schloss Marienburg",
      "latitude": 52.1728,
      "longitude": 9.7661,
      "type": "Castle",
      "significance": 4,
      "description": "A magnificent Neo-Gothic palace built by King George V of Hanover as a summer residence and gift for his wife, Queen Marie.",
      "century": 19,
      "image_url": null,
      "state": "Lower Saxony"
    },
    {
      "id": "de-lower-saxony-005",
      "name": "Neues Rathaus Hannover",
      "latitude": 52.3673,
      "longitude": 9.7373,
      "type": "Viewpoint",
      "significance": 4,
      "description": "A castle-like city hall featuring a unique arched elevator and offering panoramic views of the state capital from its dome.",
      "century": 20,
      "image_url": null,
      "state": "Lower Saxony"
    },
    {
      "id": "de-lower-saxony-006",
      "name": "Herrenhäuser Gärten",
      "latitude": 52.3911,
      "longitude": 9.6983,
      "type": "Viewpoint",
      "significance": 5,
      "description": "One of the most distinguished baroque formal gardens in Europe, heritage of the House of Hanover.",
      "century": 17,
      "image_url": null,
      "state": "Lower Saxony"
    },
    {
      "id": "de-lower-saxony-007",
      "name": "Fagus-Werk",
      "latitude": 51.9847,
      "longitude": 9.8119,
      "type": "Memorial",
      "significance": 5,
      "description": "Designed by Walter Gropius, this shoe last factory is a landmark of early modern industrial architecture and a UNESCO site.",
      "century": 20,
      "image_url": null,
      "state": "Lower Saxony"
    },
    {
      "id": "de-lower-saxony-008",
      "name": "Schloss Bückeburg",
      "latitude": 52.2591,
      "longitude": 9.0435,
      "type": "Castle",
      "significance": 4,
      "description": "The ancestral seat of the Princes of Schaumburg-Lippe, featuring a splendid Golden Hall and one of the world's largest private mausoleums.",
      "century": 16,
      "image_url": null,
      "state": "Lower Saxony"
    },
    {
      "id": "de-lower-saxony-009",
      "name": "Rattenfängerhaus Hameln",
      "latitude": 52.1033,
      "longitude": 9.3567,
      "type": "Folklore Site",
      "significance": 4,
      "description": "A magnificent Weser Renaissance building associated with the Pied Piper legend, now housing a historic restaurant.",
      "century": 16,
      "image_url": null,
      "state": "Lower Saxony"
    },
    {
      "id": "de-lower-saxony-010",
      "name": "Schloss Hämelschenburg",
      "latitude": 52.0286,
      "longitude": 9.3444,
      "type": "Castle",
      "significance": 4,
      "description": "A fully preserved Weser Renaissance manor complex located on the pilgrimage route to Santiago de Compostela.",
      "century": 16,
      "image_url": null,
      "state": "Lower Saxony"
    },
    {
      "id": "de-lower-saxony-011",
      "name": "Einbecker Brauhaus",
      "latitude": 51.8178,
      "longitude": 9.8714,
      "type": "Brewery",
      "significance": 4,
      "description": "The birthplace of Bock beer; this brewery has been a cornerstone of German beer culture since the Middle Ages.",
      "century": 14,
      "image_url": null,
      "state": "Lower Saxony"
    },
    {
      "id": "de-lower-saxony-012",
      "name": "Knochenhauer-Amtshaus",
      "latitude": 52.1523,
      "longitude": 9.9515,
      "type": "Historic Inn",
      "significance": 4,
      "description": "Regarded as one of the most beautiful half-timbered buildings in the world, originally the guild hall of the butchers.",
      "century": 16,
      "image_url": null,
      "state": "Lower Saxony"
    },
    {
      "id": "de-lower-saxony-013",
      "name": "Gänseliesel-Brunnen",
      "latitude": 51.5328,
      "longitude": 9.9331,
      "type": "Folklore Site",
      "significance": 3,
      "description": "A landmark fountain in Göttingen where newly graduated PhD students from the university traditionally kiss the bronze girl statue.",
      "century": 19,
      "image_url": null,
      "state": "Lower Saxony"
    },
    {
      "id": "de-lower-saxony-014",
      "name": "Weserstein Hann. Münden",
      "latitude": 51.4199,
      "longitude": 9.6506,
      "type": "Memorial",
      "significance": 3,
      "description": "A memorial stone marking the point where the Werra and Fulda rivers join to form the Weser.",
      "century": 19,
      "image_url": null,
      "state": "Lower Saxony"
    },
    {
      "id": "de-lower-saxony-015",
      "name": "Historisches Rathaus Duderstadt",
      "latitude": 51.5122,
      "longitude": 10.2588,
      "type": "Old Town",
      "significance": 4,
      "description": "One of the oldest and most striking town halls in Germany, featuring three distinctive timber-framed towers.",
      "century": 13,
      "image_url": null,
      "state": "Lower Saxony"
    },
    {
      "id": "de-lower-saxony-016",
      "name": "Welfenschloss Herzberg",
      "latitude": 51.6558,
      "longitude": 10.3311,
      "type": "Castle",
      "significance": 3,
      "description": "The largest half-timbered castle in Lower Saxony, once a residence of the Guelph dukes and known as the Esperanto city castle.",
      "century": 16,
      "image_url": null,
      "state": "Lower Saxony"
    },
    {
      "id": "de-lower-saxony-017",
      "name": "Marktkirche zum Heiligen Geist",
      "latitude": 51.8083,
      "longitude": 10.3342,
      "type": "Church",
      "significance": 4,
      "description": "The largest wooden church in Germany, built for the mining community of Clausthal from spruce and oak.",
      "century": 17,
      "image_url": null,
      "state": "Lower Saxony"
    },
    {
      "id": "de-lower-saxony-018",
      "name": "Bergwerk Rammelsberg",
      "latitude": 51.8903,
      "longitude": 10.4181,
      "type": "Archaeology",
      "significance": 5,
      "description": "A UNESCO-listed mine that operated continuously for over 1,000 years, providing a unique record of industrial history.",
      "century": 10,
      "image_url": null,
      "state": "Lower Saxony"
    },
    {
      "id": "de-lower-saxony-019",
      "name": "Residenzschloss Wolfenbüttel",
      "latitude": 52.1622,
      "longitude": 10.5332,
      "type": "Castle",
      "significance": 4,
      "description": "A baroque palace that served as the residence of the Dukes of Brunswick-Lüneburg and features a well-preserved facade.",
      "century": 16,
      "image_url": null,
      "state": "Lower Saxony"
    },
    {
      "id": "de-lower-saxony-020",
      "name": "Burgplatz Braunschweig",
      "latitude": 52.2647,
      "longitude": 10.5236,
      "type": "Old Town",
      "significance": 4,
      "description": "The historic center of the city featuring the Brunswick Lion statue, the Cathedral of St. Blaise, and the Dankwarderode Castle.",
      "century": 12,
      "image_url": null,
      "state": "Lower Saxony"
    },
    {
      "id": "de-lower-saxony-021",
      "name": "Kaiserdom Königslutter",
      "latitude": 52.2452,
      "longitude": 10.8155,
      "type": "Church",
      "significance": 4,
      "description": "A Romanesque basilica founded by Emperor Lothair III, known for its rich stone carvings and the tomb of the emperor.",
      "century": 12,
      "image_url": null,
      "state": "Lower Saxony"
    },
    {
      "id": "de-lower-saxony-022",
      "name": "Juleum Novum Helmstedt",
      "latitude": 52.2285,
      "longitude": 11.0069,
      "type": "Folklore Site",
      "significance": 3,
      "description": "The impressive main building of the former University of Helmstedt, showcasing late Renaissance architecture.",
      "century": 16,
      "image_url": null,
      "state": "Lower Saxony"
    },
    {
      "id": "de-lower-saxony-023",
      "name": "Forschungsmuseum Schöningen",
      "latitude": 52.1311,
      "longitude": 10.9902,
      "type": "Archaeology",
      "significance": 5,
      "description": "Site of the discovery of the world's oldest preserved wooden hunting weapons, known as the Schöningen Spears.",
      "century": -3000,
      "image_url": null,
      "state": "Lower Saxony"
    },
    {
      "id": "de-lower-saxony-024",
      "name": "Kloster Wienhausen",
      "latitude": 52.5806,
      "longitude": 10.1856,
      "type": "Monastery",
      "significance": 4,
      "description": "A Cistercian nunnery famous for its medieval tapestries and uniquely preserved interior from the Gothic period.",
      "century": 13,
      "image_url": null,
      "state": "Lower Saxony"
    },
    {
      "id": "de-lower-saxony-025",
      "name": "Schloss Celle",
      "latitude": 52.6236,
      "longitude": 10.0772,
      "type": "Castle",
      "significance": 4,
      "description": "The largest castle in the southern Lüneburg Heath, featuring the oldest baroque theater in Germany still in use.",
      "century": 13,
      "image_url": null,
      "state": "Lower Saxony"
    },
    {
      "id": "de-lower-saxony-026",
      "name": "Gedenkstätte Bergen-Belsen",
      "latitude": 52.7578,
      "longitude": 9.9075,
      "type": "Memorial",
      "significance": 5,
      "description": "A solemn memorial site on the grounds of the former Nazi concentration camp, honoring the tens of thousands who died there.",
      "century": 20,
      "image_url": null,
      "state": "Lower Saxony"
    },
    {
      "id": "de-lower-saxony-027",
      "name": "Sieben Steinhäuser",
      "latitude": 52.8256,
      "longitude": 9.8023,
      "type": "Archaeology",
      "significance": 4,
      "description": "A group of five Neolithic dolmens located within a military training area, accessible to the public on weekends.",
      "century": -25,
      "image_url": null,
      "state": "Lower Saxony"
    },
    {
      "id": "de-lower-saxony-028",
      "name": "Platz Am Sande Lüneburg",
      "latitude": 53.2479,
      "longitude": 10.4122,
      "type": "Old Town",
      "significance": 5,
      "description": "The central square of the Hanseatic city, flanked by magnificent brick-gabled houses that showcase the wealth from the salt trade.",
      "century": 14,
      "image_url": null,
      "state": "Lower Saxony"
    },
    {
      "id": "de-lower-saxony-029",
      "name": "Kloster Ebstorf",
      "latitude": 53.0306,
      "longitude": 10.4125,
      "type": "Monastery",
      "significance": 4,
      "description": "A former Benedictine nunnery home to a copy of the famous Ebstorf Map, the largest world map from the Middle Ages.",
      "century": 12,
      "image_url": null,
      "state": "Lower Saxony"
    },
    {
      "id": "de-lower-saxony-030",
      "name": "Rundlingsdorf Lübeln",
      "latitude": 52.9663,
      "longitude": 11.0858,
      "type": "Folklore Site",
      "significance": 3,
      "description": "A perfectly preserved example of a medieval 'Rundling' village layout, characteristic of the Wendland region.",
      "century": 12,
      "image_url": null,
      "state": "Lower Saxony"
    },
    {
      "id": "de-lower-saxony-031",
      "name": "Hitzacker Weinberg",
      "latitude": 53.1517,
      "longitude": 11.0456,
      "type": "Viewpoint",
      "significance": 3,
      "description": "A rare northern vineyard overlooking the Elbe river valley, located in a town known for its unique island-like old center.",
      "century": 16,
      "image_url": null,
      "state": "Lower Saxony"
    },
    {
      "id": "de-lower-saxony-032",
      "name": "Dom zu Bardowick",
      "latitude": 53.3006,
      "longitude": 10.3951,
      "type": "Church",
      "significance": 3,
      "description": "A massive three-aisled hall church built in the North German Brick Gothic style, far exceeding the size of the village.",
      "century": 14,
      "image_url": null,
      "state": "Lower Saxony"
    },
    {
      "id": "de-lower-saxony-033",
      "name": "Hansehafen Stade",
      "latitude": 53.6033,
      "longitude": 9.4761,
      "type": "Old Town",
      "significance": 4,
      "description": "The historic harbor of Stade, featuring a wooden treadmill crane and beautifully restored Hanseatic merchant houses.",
      "century": 13,
      "image_url": null,
      "state": "Lower Saxony"
    },
    {
      "id": "de-lower-saxony-034",
      "name": "Barkenhoff Worpswede",
      "latitude": 53.2197,
      "longitude": 8.9239,
      "type": "Memorial",
      "significance": 4,
      "description": "The former home and workshop of Heinrich Vogeler, central to the famous Worpswede artists' colony.",
      "century": 19,
      "image_url": null,
      "state": "Lower Saxony"
    },
    {
      "id": "de-lower-saxony-035",
      "name": "Kugelbake Cuxhaven",
      "latitude": 53.8883,
      "longitude": 8.6886,
      "type": "Viewpoint",
      "significance": 4,
      "description": "A wooden navigation landmark marking the point where the Elbe ends and the North Sea begins.",
      "century": 18,
      "image_url": null,
      "state": "Lower Saxony"
    },
    {
      "id": "de-lower-saxony-036",
      "name": "Schloss Evenburg",
      "latitude": 53.2311,
      "longitude": 7.4836,
      "type": "Castle",
      "significance": 3,
      "description": "A Neo-Gothic moated castle in Leer surrounded by extensive parklands, representing East Frisian noble life.",
      "century": 17,
      "image_url": null,
      "state": "Lower Saxony"
    },
    {
      "id": "de-lower-saxony-037",
      "name": "Kesselschleuse Emden",
      "latitude": 53.3725,
      "longitude": 7.2211,
      "type": "Historic Bridge",
      "significance": 4,
      "description": "A unique four-way lock where four different canals meet, allowing vessels to cross levels in multiple directions.",
      "century": 19,
      "image_url": null,
      "state": "Lower Saxony"
    },
    {
      "id": "de-lower-saxony-038",
      "name": "Greetsieler Zwillingsmühlen",
      "latitude": 53.5008,
      "longitude": 7.1002,
      "type": "Folklore Site",
      "significance": 4,
      "description": "Iconic twin windmills standing at the entrance to the picturesque fishing village of Greetsiel.",
      "century": 18,
      "image_url": null,
      "state": "Lower Saxony"
    },
    {
      "id": "de-lower-saxony-039",
      "name": "Ludgerikirche Norden",
      "latitude": 53.5953,
      "longitude": 7.2039,
      "type": "Church",
      "significance": 4,
      "description": "The largest medieval church in East Frisia, containing a world-famous Arp Schnitger pipe organ.",
      "century": 13,
      "image_url": null,
      "state": "Lower Saxony"
    },
    {
      "id": "de-lower-saxony-040",
      "name": "Schloss Jever",
      "latitude": 53.5739,
      "longitude": 7.9019,
      "type": "Castle",
      "significance": 4,
      "description": "A former residence of the Lords of Jever, featuring an impressive onion-shaped tower and a precious carved ceiling.",
      "century": 14,
      "image_url": null,
      "state": "Lower Saxony"
    },
    {
      "id": "de-lower-saxony-041",
      "name": "Friesisches Brauhaus zu Jever",
      "latitude": 53.5755,
      "longitude": 7.9016,
      "type": "Brewery",
      "significance": 3,
      "description": "A traditional brewery renowned for its distinctive bitter-style Pilsner and modern automated production lines.",
      "century": 19,
      "image_url": null,
      "state": "Lower Saxony"
    },
    {
      "id": "de-lower-saxony-042",
      "name": "Kaiser-Wilhelm-Brücke",
      "latitude": 53.5144,
      "longitude": 8.1472,
      "type": "Historic Bridge",
      "significance": 4,
      "description": "A grand swing bridge in Wilhelmshaven, once the largest of its kind in Europe, spanning the harbor inlet.",
      "century": 20,
      "image_url": null,
      "state": "Lower Saxony"
    },
    {
      "id": "de-lower-saxony-043",
      "name": "Schloss Oldenburg",
      "latitude": 53.1389,
      "longitude": 8.2139,
      "type": "Castle",
      "significance": 4,
      "description": "A Renaissance and Baroque palace that served as the residence of the Counts and Grand Dukes of Oldenburg.",
      "century": 17,
      "image_url": null,
      "state": "Lower Saxony"
    },
    {
      "id": "de-lower-saxony-044",
      "name": "Zwischenahner Meer",
      "latitude": 53.1953,
      "longitude": 8.0167,
      "type": "Lake",
      "significance": 3,
      "description": "The third largest lake in Lower Saxony, created by a collapsed salt dome and now a major leisure destination.",
      "century": 12,
      "image_url": null,
      "state": "Lower Saxony"
    },
    {
      "id": "de-lower-saxony-045",
      "name": "Museumsdorf Cloppenburg",
      "latitude": 52.8481,
      "longitude": 8.0519,
      "type": "Folklore Site",
      "significance": 4,
      "description": "The oldest open-air museum in Germany, featuring over 50 historic buildings that showcase rural life in the region.",
      "century": 16,
      "image_url": null,
      "state": "Lower Saxony"
    },
    {
      "id": "de-lower-saxony-046",
      "name": "Varusschlacht im Osnabrücker Land",
      "latitude": 52.4075,
      "longitude": 8.1297,
      "type": "Archaeology",
      "significance": 5,
      "description": "The likely site of the Battle of the Teutoburg Forest in 9 AD, now a museum and park exploring Roman-Germanic history.",
      "century": 1,
      "image_url": null,
      "state": "Lower Saxony"
    },
    {
      "id": "de-lower-saxony-047",
      "name": "Rathaus Osnabrück",
      "latitude": 52.2778,
      "longitude": 8.0416,
      "type": "Memorial",
      "significance": 5,
      "description": "The site where the Peace of Westphalia was negotiated in 1648, ending the Thirty Years' War.",
      "century": 16,
      "image_url": null,
      "state": "Lower Saxony"
    },
    {
      "id": "de-lower-saxony-048",
      "name": "Schloss Iburg",
      "latitude": 52.1581,
      "longitude": 8.0436,
      "type": "Castle",
      "significance": 3,
      "description": "A combined castle and monastery complex that was a residence of the Prince-Bishops of Osnabrück.",
      "century": 11,
      "image_url": null,
      "state": "Lower Saxony"
    },
    {
      "id": "de-lower-saxony-049",
      "name": "Dümmer See",
      "latitude": 52.5133,
      "longitude": 8.3514,
      "type": "Lake",
      "significance": 3,
      "description": "A shallow lake located within a nature park, crucial as a habitat for migrating wetland birds.",
      "century": 12,
      "image_url": null,
      "state": "Lower Saxony"
    },
    {
      "id": "de-lower-saxony-050",
      "name": "Koppelschleuse Meppen",
      "latitude": 52.6908,
      "longitude": 7.3006,
      "type": "Folklore Site",
      "significance": 3,
      "description": "A historic lock on the Ems-Hase canal, now serving as a cultural center in a wooded park setting.",
      "century": 19,
      "image_url": null,
      "state": "Lower Saxony"
    },
    {
      "id": "de-lower-saxony-051",
      "name": "Meyer Werft Besucherzentrum",
      "latitude": 53.0958,
      "longitude": 7.3589,
      "type": "Folklore Site",
      "significance": 4,
      "description": "One of the world's leading cruise ship builders, offering insight into massive industrial shipbuilding in Papenburg.",
      "century": 18,
      "image_url": null,
      "state": "Lower Saxony"
    },
    {
      "id": "de-lower-saxony-052",
      "name": "Steinhuder Meer",
      "latitude": 52.4833,
      "longitude": 9.35,
      "type": "Lake",
      "significance": 4,
      "description": "The largest inland lake in Northwest Germany, located in the middle of a nature park.",
      "century": 12,
      "image_url": null,
      "state": "Lower Saxony"
    },
    {
      "id": "de-lower-saxony-053",
      "name": "Inselfestung Wilhelmstein",
      "latitude": 52.4831,
      "longitude": 9.3006,
      "type": "Castle",
      "significance": 4,
      "description": "A man-made island fortress in Steinhuder Meer, built by Count William of Schaumburg-Lippe as a military defense.",
      "century": 18,
      "image_url": null,
      "state": "Lower Saxony"
    },
    {
      "id": "de-lower-saxony-054",
      "name": "Stockturm Nienburg",
      "latitude": 52.6386,
      "longitude": 9.2025,
      "type": "Ruin",
      "significance": 3,
      "description": "The last remaining tower of the former Nienburg Castle, once a residence for the Counts of Hoya.",
      "century": 14,
      "image_url": null,
      "state": "Lower Saxony"
    },
    {
      "id": "de-lower-saxony-055",
      "name": "Dom zu Verden",
      "latitude": 52.9189,
      "longitude": 9.2281,
      "type": "Church",
      "significance": 4,
      "description": "A hall church that is the first Gothic cathedral built in Lower Saxony, known for its fine proportions.",
      "century": 13,
      "image_url": null,
      "state": "Lower Saxony"
    },
    {
      "id": "de-lower-saxony-056",
      "name": "Okertalsperre",
      "latitude": 51.8483,
      "longitude": 10.4722,
      "type": "Lake",
      "significance": 3,
      "description": "A large reservoir in the Harz mountains providing flood protection and hydropower, popular for boat tours.",
      "century": 20,
      "image_url": null,
      "state": "Lower Saxony"
    },
    {
      "id": "de-lower-saxony-057",
      "name": "Beningaburg Dornum",
      "latitude": 53.6475,
      "longitude": 7.4286,
      "type": "Castle",
      "significance": 3,
      "description": "A well-preserved medieval chieftain's castle in East Frisia, reflecting the history of the Beninga family.",
      "century": 14,
      "image_url": null,
      "state": "Lower Saxony"
    },
    {
      "id": "de-lower-saxony-058",
      "name": "Sielhafenmuseum Carolinensiel",
      "latitude": 53.6917,
      "longitude": 7.8028,
      "type": "Folklore Site",
      "significance": 3,
      "description": "A museum dedicated to the historical coastal shipping and the unique harbor life of the East Frisian coast.",
      "century": 18,
      "image_url": null,
      "state": "Lower Saxony"
    },
    {
      "id": "de-lower-saxony-059",
      "name": "Kloster Loccum",
      "latitude": 52.4514,
      "longitude": 9.1494,
      "type": "Monastery",
      "significance": 4,
      "description": "A remarkably well-preserved Cistercian monastery that remained intact after the Reformation.",
      "century": 12,
      "image_url": null,
      "state": "Lower Saxony"
    },
    {
      "id": "de-lower-saxony-060",
      "name": "Radaufall",
      "latitude": 51.8539,
      "longitude": 10.5517,
      "type": "Waterfall",
      "significance": 3,
      "description": "An artificial 22-meter-high waterfall in the Harz, created in 1859 to enhance the local tourist appeal.",
      "century": 19,
      "image_url": null,
      "state": "Lower Saxony"
    }
  ]
}