{
  "state": "Saxony-Anhalt",
  "count": 60,
  "pois": [
    {
      "id": "de-saxony-anhalt-001",
      "name": "Magdeburger Dom",
      "latitude": 52.1247,
      "longitude": 11.6345,
      "type": "Church",
      "significance": 5,
      "description": "The Cathedral of Saints Maurice and Catherine is the oldest Gothic cathedral on German soil. It houses the tomb of Emperor Otto the Great and serves as the landmark of the state capital.",
      "century": 13,
      "image_url": null,
      "state": "Saxony-Anhalt"
    },
    {
      "id": "de-saxony-anhalt-002",
      "name": "Naumburger Dom St. Peter und Paul",
      "latitude": 51.1547,
      "longitude": 11.8044,
      "type": "Church",
      "significance": 5,
      "description": "A UNESCO World Heritage site famous for the Naumburg Master's donor figures, including Uta von Ballenstedt. It represents a unique transition from late Romanesque to early Gothic architecture.",
      "century": 13,
      "image_url": null,
      "state": "Saxony-Anhalt"
    },
    {
      "id": "de-saxony-anhalt-003",
      "name": "Schloss Wernigerode",
      "latitude": 51.8306,
      "longitude": 10.7951,
      "type": "Castle",
      "significance": 4,
      "description": "Originally a medieval fortress, this castle was transformed into a representative palace in the 19th century. It overlooks the town of Wernigerode and the northern Harz landscape.",
      "century": 19,
      "image_url": null,
      "state": "Saxony-Anhalt"
    },
    {
      "id": "de-saxony-anhalt-004",
      "name": "Altstadt Quedlinburg",
      "latitude": 51.7895,
      "longitude": 11.1417,
      "type": "Old Town",
      "significance": 5,
      "description": "A exceptionally well-preserved medieval and Renaissance town with over 2,000 half-timbered houses. The ensemble is a UNESCO World Heritage site and was a center of the Ottonian dynasty.",
      "century": 10,
      "image_url": null,
      "state": "Saxony-Anhalt"
    },
    {
      "id": "de-saxony-anhalt-005",
      "name": "Schlosskirche Wittenberg",
      "latitude": 51.8664,
      "longitude": 12.6378,
      "type": "Church",
      "significance": 5,
      "description": "The site where Martin Luther is said to have posted his 95 theses in 1517, sparking the Protestant Reformation. The church also serves as the final resting place for Luther and Melanchthon.",
      "century": 16,
      "image_url": null,
      "state": "Saxony-Anhalt"
    },
    {
      "id": "de-saxony-anhalt-006",
      "name": "Burg Falkenstein",
      "latitude": 51.6814,
      "longitude": 11.2664,
      "type": "Castle",
      "significance": 4,
      "description": "One of the most impressive and best-preserved high medieval castles in the Harz region. It is believed to be the place where Eike von Repgow wrote the Sachsenspiegel law code.",
      "century": 12,
      "image_url": null,
      "state": "Saxony-Anhalt"
    },
    {
      "id": "de-saxony-anhalt-007",
      "name": "Kloster Unser Lieben Frauen",
      "latitude": 52.1269,
      "longitude": 11.6369,
      "type": "Monastery",
      "significance": 4,
      "description": "The oldest building in Magdeburg, this former Premonstratensian monastery is a major example of Romanesque architecture. It now serves as a museum of contemporary art and a concert hall.",
      "century": 11,
      "image_url": null,
      "state": "Saxony-Anhalt"
    },
    {
      "id": "de-saxony-anhalt-008",
      "name": "Sonnenobservatorium Goseck",
      "latitude": 51.1983,
      "longitude": 11.8653,
      "type": "Archaeology",
      "significance": 4,
      "description": "Europe's oldest known circular solar observatory, reconstructed on its original site. The henge structure dates back to the Neolithic period and aligns with the winter solstice.",
      "century": -49,
      "image_url": null,
      "state": "Saxony-Anhalt"
    },
    {
      "id": "de-saxony-anhalt-009",
      "name": "Teufelsmauer Weddersleben",
      "latitude": 51.7567,
      "longitude": 11.0822,
      "type": "Rock Formation",
      "significance": 4,
      "description": "A striking sandstone ridge stretching for several kilometers. The 'Devil's Wall' at Weddersleben is the most famous part of this geological monument formed in the Cretaceous period.",
      "century": -660,
      "image_url": null,
      "state": "Saxony-Anhalt"
    },
    {
      "id": "de-saxony-anhalt-010",
      "name": "Altstadt Tangermünde",
      "latitude": 52.5431,
      "longitude": 11.9706,
      "type": "Old Town",
      "significance": 4,
      "description": "A historic Hanseatic city on the Elbe River, known for its nearly complete city wall and red brick Gothic architecture. It was once the secondary residence of Emperor Charles IV.",
      "century": 14,
      "image_url": null,
      "state": "Saxony-Anhalt"
    },
    {
      "id": "de-saxony-anhalt-011",
      "name": "Rudelsburg",
      "latitude": 51.1086,
      "longitude": 11.7083,
      "type": "Ruin",
      "significance": 3,
      "description": "A medieval hill castle ruin overlooking the Saale valley. It became a popular destination during the Romantic period and a focal point for German student fraternities.",
      "century": 12,
      "image_url": null,
      "state": "Saxony-Anhalt"
    },
    {
      "id": "de-saxony-anhalt-012",
      "name": "Schloss Neuenburg",
      "latitude": 51.2089,
      "longitude": 11.7758,
      "type": "Castle",
      "significance": 4,
      "description": "A massive castle complex built by the Landgraves of Thuringia. It features a rare Romanesque double chapel and overlooks the wine-growing region of Saale-Unstrut.",
      "century": 11,
      "image_url": null,
      "state": "Saxony-Anhalt"
    },
    {
      "id": "de-saxony-anhalt-013",
      "name": "Kloster Pforta",
      "latitude": 51.1422,
      "longitude": 11.7511,
      "type": "Monastery",
      "significance": 4,
      "description": "A former Cistercian monastery that later became a prestigious boarding school. Its alumni include famous figures like Friedrich Nietzsche and Leopold von Ranke.",
      "century": 12,
      "image_url": null,
      "state": "Saxony-Anhalt"
    },
    {
      "id": "de-saxony-anhalt-014",
      "name": "Merseburger Dom",
      "latitude": 51.3586,
      "longitude": 11.9994,
      "type": "Church",
      "significance": 4,
      "description": "Known for the Merseburg Incantations, two of the oldest surviving Germanic pagan spells. The cathedral site has been a major religious center since the 10th century.",
      "century": 11,
      "image_url": null,
      "state": "Saxony-Anhalt"
    },
    {
      "id": "de-saxony-anhalt-015",
      "name": "Ringheiligtum Pömmelte",
      "latitude": 52.0158,
      "longitude": 11.8022,
      "type": "Archaeology",
      "significance": 4,
      "description": "A reconstructed prehistoric woodhenge structure used for astronomical observation and ritual ceremonies. It is often described as the German counterpart to Stonehenge.",
      "century": -23,
      "image_url": null,
      "state": "Saxony-Anhalt"
    },
    {
      "id": "de-saxony-anhalt-016",
      "name": "Arche Nebra",
      "latitude": 51.2758,
      "longitude": 11.5208,
      "type": "Archaeology",
      "significance": 5,
      "description": "The visitor center located near the discovery site of the Nebra Sky Disc, the world's oldest concrete depiction of the stars. It provides insights into Bronze Age astronomy.",
      "century": -16,
      "image_url": null,
      "state": "Saxony-Anhalt"
    },
    {
      "id": "de-saxony-anhalt-017",
      "name": "Halberstädter Dom",
      "latitude": 51.8956,
      "longitude": 11.0478,
      "type": "Church",
      "significance": 4,
      "description": "A high Gothic cathedral famous for its exceptionally preserved medieval treasury. The collection includes ancient textiles and reliquaries unique in Europe.",
      "century": 13,
      "image_url": null,
      "state": "Saxony-Anhalt"
    },
    {
      "id": "de-saxony-anhalt-018",
      "name": "Stiftskirche St. Cyriakus",
      "latitude": 51.7242,
      "longitude": 11.1358,
      "type": "Church",
      "significance": 5,
      "description": "One of the best-preserved examples of Ottonian architecture in Germany. The church in Gernrode features an early Romanesque Holy Sepulchre and a historic Westwerk.",
      "century": 10,
      "image_url": null,
      "state": "Saxony-Anhalt"
    },
    {
      "id": "de-saxony-anhalt-019",
      "name": "Schloss Bernburg",
      "latitude": 51.7942,
      "longitude": 11.7347,
      "type": "Castle",
      "significance": 3,
      "description": "A Renaissance palace situated on a limestone cliff above the Saale river. It is known for its 'bear pit' and its connection to the Princes of Anhalt-Bernburg.",
      "century": 16,
      "image_url": null,
      "state": "Saxony-Anhalt"
    },
    {
      "id": "de-saxony-anhalt-020",
      "name": "Altstadt Stolberg",
      "latitude": 51.5731,
      "longitude": 10.9556,
      "type": "Old Town",
      "significance": 4,
      "description": "A historic town in the Harz mountains known for its uniform half-timbered architecture. It is the birthplace of the reformer Thomas Müntzer and the site of a grand palace.",
      "century": 15,
      "image_url": null,
      "state": "Saxony-Anhalt"
    },
    {
      "id": "de-saxony-anhalt-021",
      "name": "Burgruine Regenstein",
      "latitude": 51.8156,
      "longitude": 10.9583,
      "type": "Ruin",
      "significance": 3,
      "description": "A unique rock fortress where many rooms and corridors were carved directly into the sandstone cliffs. It offers panoramic views of the northern Harz foreland.",
      "century": 12,
      "image_url": null,
      "state": "Saxony-Anhalt"
    },
    {
      "id": "de-saxony-anhalt-022",
      "name": "Brockengipfel",
      "latitude": 51.7992,
      "longitude": 10.6156,
      "type": "Viewpoint",
      "significance": 5,
      "description": "The highest peak in the Harz Mountains and Northern Germany. Steeped in legends of witches and Walpurgis Night, it was a restricted military zone during the Cold War.",
      "century": 18,
      "image_url": null,
      "state": "Saxony-Anhalt"
    },
    {
      "id": "de-saxony-anhalt-023",
      "name": "Rosstrappe",
      "latitude": 51.7344,
      "longitude": 11.0186,
      "type": "Viewpoint",
      "significance": 3,
      "description": "A prominent granite rock high above the Bode Gorge. Legend says the 'hoofprint' in the rock was made by the horse of Princess Brunhilde as she jumped across the valley.",
      "century": 10,
      "image_url": null,
      "state": "Saxony-Anhalt"
    },
    {
      "id": "de-saxony-anhalt-024",
      "name": "Hexentanzplatz Thale",
      "latitude": 51.7356,
      "longitude": 11.0289,
      "type": "Folklore Site",
      "significance": 4,
      "description": "An ancient cult site and plateau above the Bode valley. Traditionally associated with Walpurgis Night, it now features an open-air theater and sculptures of mythic creatures.",
      "century": 8,
      "image_url": null,
      "state": "Saxony-Anhalt"
    },
    {
      "id": "de-saxony-anhalt-025",
      "name": "Havelberger Dom",
      "latitude": 52.8253,
      "longitude": 12.0717,
      "type": "Church",
      "significance": 4,
      "description": "A Romanesque and Gothic cathedral that served as the center of the Diocese of Havelberg. It marks the northernmost tip of the Romanesque Road in Saxony-Anhalt.",
      "century": 12,
      "image_url": null,
      "state": "Saxony-Anhalt"
    },
    {
      "id": "de-saxony-anhalt-026",
      "name": "Schloss Moritzburg Zeitz",
      "latitude": 51.0514,
      "longitude": 12.1264,
      "type": "Castle",
      "significance": 3,
      "description": "An early Baroque palace built for the Dukes of Saxe-Zeitz. It houses the German Carriage Museum and an extensive collection of historic baby carriages.",
      "century": 17,
      "image_url": null,
      "state": "Saxony-Anhalt"
    },
    {
      "id": "de-saxony-anhalt-027",
      "name": "Kloster Memleben",
      "latitude": 51.2667,
      "longitude": 11.4967,
      "type": "Monastery",
      "significance": 4,
      "description": "The site of a former Imperial Abbey and the place where King Henry the Fowler and Emperor Otto the Great died. Only ruins of the monumental 13th-century church remain.",
      "century": 10,
      "image_url": null,
      "state": "Saxony-Anhalt"
    },
    {
      "id": "de-saxony-anhalt-028",
      "name": "Burg Querfurt",
      "latitude": 51.3783,
      "longitude": 11.5956,
      "type": "Castle",
      "significance": 4,
      "description": "One of the largest medieval castles in Germany, featuring three massive towers and extensive fortifications. It is often used as a filming location for historical movies.",
      "century": 10,
      "image_url": null,
      "state": "Saxony-Anhalt"
    },
    {
      "id": "de-saxony-anhalt-029",
      "name": "Schloss Köthen",
      "latitude": 51.7533,
      "longitude": 11.9744,
      "type": "Castle",
      "significance": 3,
      "description": "A former residence of the Princes of Anhalt-Köthen. Johann Sebastian Bach worked here as Kapellmeister, composing many of his famous instrumental works.",
      "century": 16,
      "image_url": null,
      "state": "Saxony-Anhalt"
    },
    {
      "id": "de-saxony-anhalt-030",
      "name": "Arendsee",
      "latitude": 52.8833,
      "longitude": 11.4833,
      "type": "Lake",
      "significance": 3,
      "description": "The largest and deepest natural lake in Saxony-Anhalt, formed by the collapse of an underground salt dome. It is a popular recreation spot in the Altmark region.",
      "century": 9,
      "image_url": null,
      "state": "Saxony-Anhalt"
    },
    {
      "id": "de-saxony-anhalt-031",
      "name": "Lutherhaus Wittenberg",
      "latitude": 51.8644,
      "longitude": 12.6481,
      "type": "Memorial",
      "significance": 5,
      "description": "The world's largest museum of Reformation history, located in the former Augustinian monastery where Martin Luther lived for most of his life.",
      "century": 16,
      "image_url": null,
      "state": "Saxony-Anhalt"
    },
    {
      "id": "de-saxony-anhalt-032",
      "name": "Kloster Drübeck",
      "latitude": 51.8553,
      "longitude": 10.7144,
      "type": "Monastery",
      "significance": 3,
      "description": "A former Benedictine nunnery along the Romanesque Road. It is famous for its historic gardens and the 1,000-year-old linden tree on the monastery grounds.",
      "century": 10,
      "image_url": null,
      "state": "Saxony-Anhalt"
    },
    {
      "id": "de-saxony-anhalt-033",
      "name": "Kloster Michaelstein",
      "latitude": 51.8081,
      "longitude": 10.9161,
      "type": "Monastery",
      "significance": 3,
      "description": "A former Cistercian monastery near Blankenburg. Today it is an academy for music and features a unique garden with medieval herbs and medicinal plants.",
      "century": 12,
      "image_url": null,
      "state": "Saxony-Anhalt"
    },
    {
      "id": "de-saxony-anhalt-034",
      "name": "Moritzburg Halle",
      "latitude": 51.4864,
      "longitude": 11.9642,
      "type": "Castle",
      "significance": 4,
      "description": "A late Gothic castle that served as the residence of the Archbishops of Magdeburg. It now houses the Art Museum of the State of Saxony-Anhalt.",
      "century": 15,
      "image_url": null,
      "state": "Saxony-Anhalt"
    },
    {
      "id": "de-saxony-anhalt-035",
      "name": "Schloss Wörlitz",
      "latitude": 51.8481,
      "longitude": 12.4214,
      "type": "Castle",
      "significance": 5,
      "description": "The first Neoclassical palace in Germany, located in the Wörlitz Garden Realm. It was built for Prince Leopold III Friedrich Franz of Anhalt-Dessau.",
      "century": 18,
      "image_url": null,
      "state": "Saxony-Anhalt"
    },
    {
      "id": "de-saxony-anhalt-036",
      "name": "Josephskreuz",
      "latitude": 51.5806,
      "longitude": 11.0056,
      "type": "Viewpoint",
      "significance": 3,
      "description": "The world's largest iron double cross, located on the Auerberg. It is a 38-meter tall observation tower designed in the style of a medieval framework tower.",
      "century": 19,
      "image_url": null,
      "state": "Saxony-Anhalt"
    },
    {
      "id": "de-saxony-anhalt-037",
      "name": "Königshütter Wasserfall",
      "latitude": 51.7725,
      "longitude": 10.7714,
      "type": "Waterfall",
      "significance": 2,
      "description": "An artificial but picturesque waterfall in the Harz mountains, created during former mining operations. It is located near the confluence of the Cold and Warm Bode rivers.",
      "century": 20,
      "image_url": null,
      "state": "Saxony-Anhalt"
    },
    {
      "id": "de-saxony-anhalt-038",
      "name": "Altstadt Werben",
      "latitude": 52.8603,
      "longitude": 11.9819,
      "type": "Old Town",
      "significance": 3,
      "description": "One of Germany's smallest Hanseatic cities, known for its red brick Gothic gate and the massive St. Johannis church. It is often called the 'Stork City'.",
      "century": 14,
      "image_url": null,
      "state": "Saxony-Anhalt"
    },
    {
      "id": "de-saxony-anhalt-039",
      "name": "Kugelbrücke Quedlinburg",
      "latitude": 51.7903,
      "longitude": 11.1436,
      "type": "Historic Bridge",
      "significance": 2,
      "description": "A small historic stone bridge in the old town of Quedlinburg, crossing the Bode river. It represents typical late medieval infrastructure in the merchant district.",
      "century": 14,
      "image_url": null,
      "state": "Saxony-Anhalt"
    },
    {
      "id": "de-saxony-anhalt-040",
      "name": "Marktkirche Unser Lieben Frauen",
      "latitude": 51.4828,
      "longitude": 11.9686,
      "type": "Church",
      "significance": 4,
      "description": "Located in the center of Halle, this church features four towers that dominate the skyline. Martin Luther preached here several times, and George Frideric Handel was baptized here.",
      "century": 16,
      "image_url": null,
      "state": "Saxony-Anhalt"
    },
    {
      "id": "de-saxony-anhalt-041",
      "name": "Luthers Geburtshaus",
      "latitude": 51.5283,
      "longitude": 11.5469,
      "type": "Memorial",
      "significance": 4,
      "description": "The house in Eisleben where Martin Luther was born in 1483. It is one of the oldest museums in the German-speaking world and a UNESCO World Heritage site.",
      "century": 15,
      "image_url": null,
      "state": "Saxony-Anhalt"
    },
    {
      "id": "de-saxony-anhalt-042",
      "name": "Kloster Huysburg",
      "latitude": 51.9592,
      "longitude": 11.0008,
      "type": "Monastery",
      "significance": 3,
      "description": "A Benedictine monastery located on the Huy ridge. It survived the Reformation and secularization and remains an active religious center with a significant Romanesque church.",
      "century": 11,
      "image_url": null,
      "state": "Saxony-Anhalt"
    },
    {
      "id": "de-saxony-anhalt-043",
      "name": "Burgruine Giebichenstein",
      "latitude": 51.5033,
      "longitude": 11.9539,
      "type": "Ruin",
      "significance": 3,
      "description": "A castle ruin on a cliff above the Saale in Halle. It was an important residency for the Archbishops of Magdeburg and now houses part of the local art academy.",
      "century": 10,
      "image_url": null,
      "state": "Saxony-Anhalt"
    },
    {
      "id": "de-saxony-anhalt-044",
      "name": "Schloss Allstedt",
      "latitude": 51.4056,
      "longitude": 11.3856,
      "type": "Castle",
      "significance": 3,
      "description": "A former Imperial Palace where Thomas Müntzer delivered his famous 'Sermon to the Princes'. It was also a favorite retreat for Johann Wolfgang von Goethe.",
      "century": 16,
      "image_url": null,
      "state": "Saxony-Anhalt"
    },
    {
      "id": "de-saxony-anhalt-045",
      "name": "Europa-Rosarium",
      "latitude": 51.4744,
      "longitude": 11.3117,
      "type": "Folklore Site",
      "significance": 3,
      "description": "The world's largest collection of roses, located in Sangerhausen. It preserves over 8,600 varieties and serves as a vital genetic database for the genus Rosa.",
      "century": 20,
      "image_url": null,
      "state": "Saxony-Anhalt"
    },
    {
      "id": "de-saxony-anhalt-046",
      "name": "Hamburger Wappen",
      "latitude": 51.7853,
      "longitude": 11.0003,
      "type": "Rock Formation",
      "significance": 3,
      "description": "A distinct group of vertical sandstone rocks near Timmenrode, part of the Teufelsmauer ridge. Its three pinnacles resemble the coat of arms of the city of Hamburg.",
      "century": -660,
      "image_url": null,
      "state": "Saxony-Anhalt"
    },
    {
      "id": "de-saxony-anhalt-047",
      "name": "Schloss Hundisburg",
      "latitude": 52.2494,
      "longitude": 11.4003,
      "type": "Castle",
      "significance": 3,
      "description": "One of the most important Baroque palace complexes in Saxony-Anhalt, featuring a large landscaped garden and an extensive park designed in the French and English styles.",
      "century": 18,
      "image_url": null,
      "state": "Saxony-Anhalt"
    },
    {
      "id": "de-saxony-anhalt-048",
      "name": "Stendaler Roland",
      "latitude": 52.6056,
      "longitude": 11.8597,
      "type": "Memorial",
      "significance": 3,
      "description": "A monumental stone statue in front of the town hall, symbolizing the city's rights and freedoms. At 7.8 meters, it is one of the tallest Roland statues in Germany.",
      "century": 16,
      "image_url": null,
      "state": "Saxony-Anhalt"
    },
    {
      "id": "de-saxony-anhalt-049",
      "name": "Kaiserpfalz Tilleda",
      "latitude": 51.42,
      "longitude": 11.1444,
      "type": "Archaeology",
      "significance": 4,
      "description": "An open-air museum at the site of a fully excavated medieval Imperial Palace. It shows the structure of an Ottonian and Staufian residence at the foot of the Kyffhäuser.",
      "century": 10,
      "image_url": null,
      "state": "Saxony-Anhalt"
    },
    {
      "id": "de-saxony-anhalt-050",
      "name": "St. Stephani Aschersleben",
      "latitude": 51.7547,
      "longitude": 11.4558,
      "type": "Church",
      "significance": 3,
      "description": "A large Gothic hall church that dominates the skyline of the oldest town in Saxony-Anhalt. It houses a rare late medieval library and a Craneach altar.",
      "century": 15,
      "image_url": null,
      "state": "Saxony-Anhalt"
    },
    {
      "id": "de-saxony-anhalt-051",
      "name": "Burg Saaleck",
      "latitude": 51.1094,
      "longitude": 11.7008,
      "type": "Ruin",
      "significance": 3,
      "description": "The ruin of a medieval hilltop castle near the Rudelsburg. It is notable for its two distinctive round keep towers and its dramatic position overlooking the Saale valley.",
      "century": 12,
      "image_url": null,
      "state": "Saxony-Anhalt"
    },
    {
      "id": "de-saxony-anhalt-052",
      "name": "Schloss Oranienbaum",
      "latitude": 51.7989,
      "longitude": 12.4069,
      "type": "Castle",
      "significance": 4,
      "description": "A Dutch-style Baroque palace and town ensemble built for Princess Henriette Catharina of Nassau-Orange. It features a unique Chinese garden and pagoda.",
      "century": 17,
      "image_url": null,
      "state": "Saxony-Anhalt"
    },
    {
      "id": "de-saxony-anhalt-053",
      "name": "Gradierwerk Bad Kösen",
      "latitude": 51.1358,
      "longitude": 11.7222,
      "type": "Folklore Site",
      "significance": 3,
      "description": "A 325-meter long salt graduation tower used for brine extraction and inhalation therapy. It is a masterpiece of industrial technology from the mid-18th century.",
      "century": 18,
      "image_url": null,
      "state": "Saxony-Anhalt"
    },
    {
      "id": "de-saxony-anhalt-054",
      "name": "Kloster Jerichow",
      "latitude": 52.4911,
      "longitude": 12.0233,
      "type": "Monastery",
      "significance": 5,
      "description": "A prime example of early brick Romanesque architecture in Northern Germany. The former Premonstratensian abbey remains almost unchanged since its construction.",
      "century": 12,
      "image_url": null,
      "state": "Saxony-Anhalt"
    },
    {
      "id": "de-saxony-anhalt-055",
      "name": "Schloss Mosigkau",
      "latitude": 51.8047,
      "longitude": 12.1511,
      "type": "Castle",
      "significance": 4,
      "description": "Often called the 'Little Sanssouci', this Rococo palace was built as a summer residence for Anna Wilhelmine of Anhalt-Dessau. It contains a rare collection of Dutch paintings.",
      "century": 18,
      "image_url": null,
      "state": "Saxony-Anhalt"
    },
    {
      "id": "de-saxony-anhalt-056",
      "name": "Schloss Pretzsch",
      "latitude": 51.7164,
      "longitude": 12.7847,
      "type": "Castle",
      "significance": 2,
      "description": "A Renaissance palace on the Elbe River that served as a dower house for the Electresses of Saxony. It is closely linked to the history of the Electress Christiane Eberhardine.",
      "century": 16,
      "image_url": null,
      "state": "Saxony-Anhalt"
    },
    {
      "id": "de-saxony-anhalt-057",
      "name": "Wippraer Museumsbrauerei",
      "latitude": 51.5714,
      "longitude": 11.2783,
      "type": "Brewery",
      "significance": 2,
      "description": "A traditional brewery in the Harz mountains that still uses open fermentation and classic methods. It maintains a museum showing the history of beer production.",
      "century": 15,
      "image_url": null,
      "state": "Saxony-Anhalt"
    },
    {
      "id": "de-saxony-anhalt-058",
      "name": "Historischer Gasthof Zum Bären",
      "latitude": 51.7892,
      "longitude": 11.1425,
      "type": "Historic Inn",
      "significance": 3,
      "description": "One of the oldest inns in Quedlinburg, operating since the 18th century. The building itself is an architectural treasure with detailed carvings and historic interiors.",
      "century": 18,
      "image_url": null,
      "state": "Saxony-Anhalt"
    },
    {
      "id": "de-saxony-anhalt-059",
      "name": "Ferropolis",
      "latitude": 51.7594,
      "longitude": 12.4464,
      "type": "Memorial",
      "significance": 4,
      "description": "The 'City of Iron' is an open-air museum featuring five massive decommissioned industrial excavators. It serves as a monument to the region's lignite mining history.",
      "century": 20,
      "image_url": null,
      "state": "Saxony-Anhalt"
    },
    {
      "id": "de-saxony-anhalt-060",
      "name": "Eckartsburg",
      "latitude": 51.1219,
      "longitude": 11.5833,
      "type": "Ruin",
      "significance": 3,
      "description": "A medieval castle overlooking the town of Eckartsberga. It was an important military post on the Via Regia and features a well-preserved square keep.",
      "century": 12,
      "image_url": null,
      "state": "Saxony-Anhalt"
    }
  ]
}