{
  "state": "Thuringia",
  "count": 60,
  "pois": [
    {
      "id": "de-thuringia-001",
      "name": "Wartburg",
      "latitude": 50.9664,
      "longitude": 10.3063,
      "type": "Castle",
      "significance": 5,
      "description": "This UNESCO World Heritage site is where Martin Luther translated the New Testament into German. It is a premier example of Romanesque architecture and German history.",
      "century": 11,
      "image_url": null,
      "state": "Thuringia"
    },
    {
      "id": "de-thuringia-002",
      "name": "Erfurter Dom",
      "latitude": 50.9758,
      "longitude": 11.0232,
      "type": "Church",
      "significance": 5,
      "description": "The Cathedral of St. Mary features impressive Gothic architecture and the famous Gloriosa bell, the world's largest free-swinging medieval bell.",
      "century": 12,
      "image_url": null,
      "state": "Thuringia"
    },
    {
      "id": "de-thuringia-003",
      "name": "Krämerbrücke",
      "latitude": 50.9786,
      "longitude": 11.031,
      "type": "Historic Bridge",
      "significance": 5,
      "description": "A unique medieval structure, this is the longest inhabited bridge in Europe with buildings lining both sides across the Breitstrom river.",
      "century": 14,
      "image_url": null,
      "state": "Thuringia"
    },
    {
      "id": "de-thuringia-004",
      "name": "Schloss Friedenstein",
      "latitude": 50.9458,
      "longitude": 10.7042,
      "type": "Castle",
      "significance": 5,
      "description": "One of Germany's best-preserved Early Baroque palace complexes, housing extensive art collections and the historic Ekhof Theatre.",
      "century": 17,
      "image_url": null,
      "state": "Thuringia"
    },
    {
      "id": "de-thuringia-005",
      "name": "Gedenkstätte Buchenwald",
      "latitude": 51.0222,
      "longitude": 11.2492,
      "type": "Memorial",
      "significance": 5,
      "description": "A solemn memorial site on the grounds of the former Nazi concentration camp, documenting the crimes of the regime and honoring its victims.",
      "century": 20,
      "image_url": null,
      "state": "Thuringia"
    },
    {
      "id": "de-thuringia-006",
      "name": "Goethes Nationalmuseum",
      "latitude": 50.9772,
      "longitude": 11.3283,
      "type": "Memorial",
      "significance": 5,
      "description": "The former residence of Johann Wolfgang von Goethe, where the famous poet lived for 50 years and composed many of his greatest works.",
      "century": 18,
      "image_url": null,
      "state": "Thuringia"
    },
    {
      "id": "de-thuringia-007",
      "name": "Schloss Belvedere",
      "latitude": 50.9486,
      "longitude": 11.3486,
      "type": "Castle",
      "significance": 4,
      "description": "A Rococo pleasure palace south of Weimar, surrounded by extensive English-style landscape gardens and an orangery.",
      "century": 18,
      "image_url": null,
      "state": "Thuringia"
    },
    {
      "id": "de-thuringia-008",
      "name": "Drachenschlucht",
      "latitude": 50.9525,
      "longitude": 10.3056,
      "type": "Rock Formation",
      "significance": 4,
      "description": "A narrow gorge near Eisenach where hikers walk through rock walls only 68 centimeters apart at their narrowest point.",
      "century": 20,
      "image_url": null,
      "state": "Thuringia"
    },
    {
      "id": "de-thuringia-009",
      "name": "Leuchtenburg",
      "latitude": 50.8028,
      "longitude": 11.6111,
      "type": "Castle",
      "significance": 4,
      "description": "Known as the 'Queen of the Saale Valley', this castle hosts a modern porcelain museum and offers expansive views over the landscape.",
      "century": 12,
      "image_url": null,
      "state": "Thuringia"
    },
    {
      "id": "de-thuringia-010",
      "name": "Schloss Heidecksburg",
      "latitude": 50.7225,
      "longitude": 11.3386,
      "type": "Castle",
      "significance": 4,
      "description": "The former residence of the Princes of Schwarzburg-Rudolstadt, famous for its magnificent Rococo hall and miniature 'Rococo en miniature' exhibition.",
      "century": 18,
      "image_url": null,
      "state": "Thuringia"
    },
    {
      "id": "de-thuringia-011",
      "name": "Kyffhäuser-Denkmal",
      "latitude": 51.4131,
      "longitude": 11.1097,
      "type": "Memorial",
      "significance": 5,
      "description": "An enormous monument featuring Emperor Wilhelm I and Frederick Barbarossa, built atop the ruins of a much older imperial castle.",
      "century": 19,
      "image_url": null,
      "state": "Thuringia"
    },
    {
      "id": "de-thuringia-012",
      "name": "Burg Hanstein",
      "latitude": 51.34,
      "longitude": 9.9397,
      "type": "Ruin",
      "significance": 4,
      "description": "One of the most impressive castle ruins in Central Germany, offering views of the tri-state border area between Thuringia, Hesse, and Lower Saxony.",
      "century": 11,
      "image_url": null,
      "state": "Thuringia"
    },
    {
      "id": "de-thuringia-013",
      "name": "Schloss Burgk",
      "latitude": 50.5544,
      "longitude": 11.7161,
      "type": "Castle",
      "significance": 4,
      "description": "A picturesque castle complex on the Upper Saale, containing historic residential rooms and a notable chapel with a Silbermann organ.",
      "century": 14,
      "image_url": null,
      "state": "Thuringia"
    },
    {
      "id": "de-thuringia-014",
      "name": "Dornburger Schlösser",
      "latitude": 51.0061,
      "longitude": 11.6669,
      "type": "Castle",
      "significance": 4,
      "description": "A group of three distinct palaces from different eras perched on a limestone cliff above the Saale valley.",
      "century": 16,
      "image_url": null,
      "state": "Thuringia"
    },
    {
      "id": "de-thuringia-015",
      "name": "Saalfelder Feengrotten",
      "latitude": 50.6358,
      "longitude": 11.3422,
      "type": "Rock Formation",
      "significance": 4,
      "description": "Former alum shale mines turned into colorful dripstone caves, officially listed as the most colorful grottoes in the world.",
      "century": 16,
      "image_url": null,
      "state": "Thuringia"
    },
    {
      "id": "de-thuringia-016",
      "name": "Klosterruine Paulinzella",
      "latitude": 50.7028,
      "longitude": 11.1039,
      "type": "Ruin",
      "significance": 4,
      "description": "One of the most important Romanesque monastery ruins in Germany, demonstrating the transition of architectural styles in the 12th century.",
      "century": 12,
      "image_url": null,
      "state": "Thuringia"
    },
    {
      "id": "de-thuringia-017",
      "name": "Altstadt Mühlhausen",
      "latitude": 51.2086,
      "longitude": 10.4564,
      "type": "Old Town",
      "significance": 4,
      "description": "A remarkably well-preserved medieval town center with a nearly complete city wall and numerous historic churches.",
      "century": 12,
      "image_url": null,
      "state": "Thuringia"
    },
    {
      "id": "de-thuringia-018",
      "name": "Schloss Elisabethenburg",
      "latitude": 50.5708,
      "longitude": 10.4125,
      "type": "Castle",
      "significance": 4,
      "description": "The Baroque residence of the Dukes of Saxe-Meiningen, now housing extensive regional museum collections.",
      "century": 17,
      "image_url": null,
      "state": "Thuringia"
    },
    {
      "id": "de-thuringia-019",
      "name": "Altstadt Schmalkalden",
      "latitude": 50.7219,
      "longitude": 10.4514,
      "type": "Old Town",
      "significance": 4,
      "description": "Features a wealth of colorful half-timbered houses and historic squares associated with the Schmalkaldic League.",
      "century": 14,
      "image_url": null,
      "state": "Thuringia"
    },
    {
      "id": "de-thuringia-020",
      "name": "Schloss Wilhelmsburg",
      "latitude": 50.725,
      "longitude": 10.455,
      "type": "Castle",
      "significance": 4,
      "description": "An exceptionally preserved Renaissance palace in Schmalkalden, virtually unchanged since its completion in the late 16th century.",
      "century": 16,
      "image_url": null,
      "state": "Thuringia"
    },
    {
      "id": "de-thuringia-021",
      "name": "Point Alpha",
      "latitude": 50.7208,
      "longitude": 9.9303,
      "type": "Memorial",
      "significance": 5,
      "description": "A former US Army observation post on the inner-German border, now a memorial illustrating the tensions of the Cold War.",
      "century": 20,
      "image_url": null,
      "state": "Thuringia"
    },
    {
      "id": "de-thuringia-022",
      "name": "Hohenwarte-Stausee",
      "latitude": 50.6053,
      "longitude": 11.5208,
      "type": "Lake",
      "significance": 3,
      "description": "Known as the 'Thuringian Sea', this is part of the largest connected reservoir system in Germany, popular for water sports.",
      "century": 20,
      "image_url": null,
      "state": "Thuringia"
    },
    {
      "id": "de-thuringia-023",
      "name": "Bleilochtalsperre",
      "latitude": 50.4856,
      "longitude": 11.7258,
      "type": "Lake",
      "significance": 3,
      "description": "The largest reservoir by volume in Germany, formed by damming the Saale river in the 1930s.",
      "century": 20,
      "image_url": null,
      "state": "Thuringia"
    },
    {
      "id": "de-thuringia-024",
      "name": "Trusetaler Wasserfall",
      "latitude": 50.7933,
      "longitude": 10.4181,
      "type": "Waterfall",
      "significance": 3,
      "description": "An artificial waterfall created by diverting water from the Truse river, falling 58 meters over several rock steps.",
      "century": 19,
      "image_url": null,
      "state": "Thuringia"
    },
    {
      "id": "de-thuringia-025",
      "name": "Baumkronenpfad Hainich",
      "latitude": 51.0828,
      "longitude": 10.5114,
      "type": "Viewpoint",
      "significance": 4,
      "description": "A high-altitude canopy walk through the beech forests of Hainich National Park, a UNESCO World Heritage natural site.",
      "century": 21,
      "image_url": null,
      "state": "Thuringia"
    },
    {
      "id": "de-thuringia-026",
      "name": "Funkenburg Westgreußen",
      "latitude": 51.2789,
      "longitude": 10.8986,
      "type": "Archaeology",
      "significance": 3,
      "description": "A reconstructed Germanic fortified settlement based on archaeological excavations of an Iron Age site.",
      "century": -2,
      "image_url": null,
      "state": "Thuringia"
    },
    {
      "id": "de-thuringia-027",
      "name": "Alte Synagoge Erfurt",
      "latitude": 50.9789,
      "longitude": 11.0289,
      "type": "Archaeology",
      "significance": 5,
      "description": "The oldest synagogue building preserved up to its roof in Central Europe, housing the spectacular Erfurt Treasure.",
      "century": 11,
      "image_url": null,
      "state": "Thuringia"
    },
    {
      "id": "de-thuringia-028",
      "name": "Marienkirche Mühlhausen",
      "latitude": 51.2106,
      "longitude": 10.4572,
      "type": "Church",
      "significance": 4,
      "description": "A five-aisled Gothic hall church where Johann Sebastian Bach worked as an organist early in his career.",
      "century": 14,
      "image_url": null,
      "state": "Thuringia"
    },
    {
      "id": "de-thuringia-029",
      "name": "Residenzschloss Altenburg",
      "latitude": 50.9881,
      "longitude": 12.4419,
      "type": "Castle",
      "significance": 4,
      "description": "Perched on a porphyry rock, this castle was the seat of the Dukes of Saxe-Altenburg and features a notable historic organ.",
      "century": 10,
      "image_url": null,
      "state": "Thuringia"
    },
    {
      "id": "de-thuringia-030",
      "name": "Kloster Volkenroda",
      "latitude": 51.25,
      "longitude": 10.5678,
      "type": "Monastery",
      "significance": 4,
      "description": "A former Cistercian monastery featuring a modern 'Christus-Pavillon' from Expo 2000 integrated into the historic site.",
      "century": 12,
      "image_url": null,
      "state": "Thuringia"
    },
    {
      "id": "de-thuringia-031",
      "name": "Hülfensberg",
      "latitude": 51.2217,
      "longitude": 10.1581,
      "type": "Shrine / Chapel",
      "significance": 3,
      "description": "The most important pilgrimage site in the Eichsfeld region, featuring a medieval cross and a Franciscan monastery.",
      "century": 14,
      "image_url": null,
      "state": "Thuringia"
    },
    {
      "id": "de-thuringia-032",
      "name": "Werrabrücke Vacha",
      "latitude": 50.83,
      "longitude": 10.0211,
      "type": "Historic Bridge",
      "significance": 4,
      "description": "A historic stone arch bridge across the Werra that served as a symbol of German division during the Cold War.",
      "century": 12,
      "image_url": null,
      "state": "Thuringia"
    },
    {
      "id": "de-thuringia-033",
      "name": "Großer Inselsberg",
      "latitude": 50.8511,
      "longitude": 10.4658,
      "type": "Viewpoint",
      "significance": 3,
      "description": "One of the highest and most prominent peaks in the Thuringian Forest, providing 360-degree views of the surrounding regions.",
      "century": 20,
      "image_url": null,
      "state": "Thuringia"
    },
    {
      "id": "de-thuringia-034",
      "name": "Steinerne Rose",
      "latitude": 50.4411,
      "longitude": 11.7583,
      "type": "Rock Formation",
      "significance": 3,
      "description": "A natural rock formation near Saalburg-Ebersdorf that resembles a blooming rose due to volcanic activity and erosion.",
      "century": 20,
      "image_url": null,
      "state": "Thuringia"
    },
    {
      "id": "de-thuringia-035",
      "name": "Veste Heldburg",
      "latitude": 50.2883,
      "longitude": 10.7308,
      "type": "Castle",
      "significance": 4,
      "description": "Home to the German Castle Museum, this fortress offers insights into the history and life within German defensive structures.",
      "century": 12,
      "image_url": null,
      "state": "Thuringia"
    },
    {
      "id": "de-thuringia-036",
      "name": "Burg Ranis",
      "latitude": 50.6653,
      "longitude": 11.5678,
      "type": "Castle",
      "significance": 3,
      "description": "A majestic castle sitting on a high cliff, known for the prehistoric Ilsenhöhle cave located directly beneath its walls.",
      "century": 11,
      "image_url": null,
      "state": "Thuringia"
    },
    {
      "id": "de-thuringia-037",
      "name": "Schloss Molsdorf",
      "latitude": 50.9028,
      "longitude": 10.9619,
      "type": "Castle",
      "significance": 3,
      "description": "Often called the 'Versailles of Thuringia', this late Baroque palace is known for its elegant interiors and park.",
      "century": 18,
      "image_url": null,
      "state": "Thuringia"
    },
    {
      "id": "de-thuringia-038",
      "name": "Köstritzer Schwarzbierbrauerei",
      "latitude": 50.9308,
      "longitude": 12.0114,
      "type": "Brewery",
      "significance": 4,
      "description": "One of Germany's oldest producers of black beer, with brewing traditions documented back nearly five centuries.",
      "century": 16,
      "image_url": null,
      "state": "Thuringia"
    },
    {
      "id": "de-thuringia-039",
      "name": "Oberweißbacher Bergbahn",
      "latitude": 50.5939,
      "longitude": 11.1394,
      "type": "Folklore Site",
      "significance": 4,
      "description": "A unique broad-gauge funicular railway connecting Obstfelderschmiede and Cursdorf in the Thuringian Highlands.",
      "century": 20,
      "image_url": null,
      "state": "Thuringia"
    },
    {
      "id": "de-thuringia-040",
      "name": "Gedenkstätte Andreasstraße",
      "latitude": 50.9781,
      "longitude": 11.0208,
      "type": "Memorial",
      "significance": 4,
      "description": "A former Stasi prison in Erfurt that now serves as a museum dedicated to repression and resistance in the GDR.",
      "century": 20,
      "image_url": null,
      "state": "Thuringia"
    },
    {
      "id": "de-thuringia-041",
      "name": "Lutherhaus Eisenach",
      "latitude": 50.9733,
      "longitude": 10.3197,
      "type": "Memorial",
      "significance": 4,
      "description": "One of the oldest timber-framed buildings in Thuringia, where Martin Luther lived as a student with the Cotta family.",
      "century": 15,
      "image_url": null,
      "state": "Thuringia"
    },
    {
      "id": "de-thuringia-042",
      "name": "Bachhaus Eisenach",
      "latitude": 50.9714,
      "longitude": 10.3236,
      "type": "Memorial",
      "significance": 5,
      "description": "The first museum in the world dedicated to Johann Sebastian Bach, located in the town where the composer was born.",
      "century": 15,
      "image_url": null,
      "state": "Thuringia"
    },
    {
      "id": "de-thuringia-043",
      "name": "Kickelhahn",
      "latitude": 50.6631,
      "longitude": 10.8847,
      "type": "Viewpoint",
      "significance": 3,
      "description": "A mountain near Ilmenau famous for the Goethehäuschen, where Goethe wrote his famous poem 'Wanderer's Night Song'.",
      "century": 18,
      "image_url": null,
      "state": "Thuringia"
    },
    {
      "id": "de-thuringia-044",
      "name": "Burg Gleichen",
      "latitude": 50.8808,
      "longitude": 10.8389,
      "type": "Ruin",
      "significance": 4,
      "description": "One of the 'Three Equals' (Drei Gleichen) castles, this ruin is famous for the legend of the Count von Gleichen and his two wives.",
      "century": 11,
      "image_url": null,
      "state": "Thuringia"
    },
    {
      "id": "de-thuringia-045",
      "name": "Mühlburg",
      "latitude": 50.8661,
      "longitude": 10.8306,
      "type": "Ruin",
      "significance": 3,
      "description": "The oldest of the three Gleichen castles, offering a view of the Thuringian Basin from its preserved keep.",
      "century": 8,
      "image_url": null,
      "state": "Thuringia"
    },
    {
      "id": "de-thuringia-046",
      "name": "Veste Wachsenburg",
      "latitude": 50.8594,
      "longitude": 10.8792,
      "type": "Castle",
      "significance": 4,
      "description": "The only fully restored castle of the 'Three Equals' group, today serving as a hotel, restaurant, and museum.",
      "century": 10,
      "image_url": null,
      "state": "Thuringia"
    },
    {
      "id": "de-thuringia-047",
      "name": "Schlosspark Tiefurt",
      "latitude": 50.9944,
      "longitude": 11.3639,
      "type": "Castle",
      "significance": 4,
      "description": "A modest palace that served as the summer residence of Anna Amalia and was a center of Weimar's cultural life.",
      "century": 18,
      "image_url": null,
      "state": "Thuringia"
    },
    {
      "id": "de-thuringia-048",
      "name": "JenTower",
      "latitude": 50.9292,
      "longitude": 11.5839,
      "type": "Viewpoint",
      "significance": 4,
      "description": "A 144-meter skyscraper in Jena, originally designed for the Zeiss company, offering the best panoramic view of the Saale valley.",
      "century": 20,
      "image_url": null,
      "state": "Thuringia"
    },
    {
      "id": "de-thuringia-049",
      "name": "Park an der Ilm",
      "latitude": 50.9733,
      "longitude": 11.3347,
      "type": "Folklore Site",
      "significance": 5,
      "description": "A classic landscape garden in Weimar created in the late 18th century with significant input from Goethe.",
      "century": 18,
      "image_url": null,
      "state": "Thuringia"
    },
    {
      "id": "de-thuringia-050",
      "name": "Herzogin Anna Amalia Bibliothek",
      "latitude": 50.9789,
      "longitude": 11.3325,
      "type": "Memorial",
      "significance": 5,
      "description": "A historic library housing rare collections and the famous Rococo Hall, which was restored after a major fire in 2004.",
      "century": 16,
      "image_url": null,
      "state": "Thuringia"
    },
    {
      "id": "de-thuringia-051",
      "name": "Gera Marktplatz",
      "latitude": 50.8767,
      "longitude": 12.0833,
      "type": "Old Town",
      "significance": 3,
      "description": "The central square of Gera, featuring a Renaissance town hall and the Simson fountain.",
      "century": 16,
      "image_url": null,
      "state": "Thuringia"
    },
    {
      "id": "de-thuringia-052",
      "name": "Residenzschloss Sondershausen",
      "latitude": 51.3719,
      "longitude": 10.8697,
      "type": "Castle",
      "significance": 4,
      "description": "The former seat of the Princes of Schwarzburg-Sondershausen, notable for its diverse architectural styles from Renaissance to Classicism.",
      "century": 16,
      "image_url": null,
      "state": "Thuringia"
    },
    {
      "id": "de-thuringia-053",
      "name": "Panorama Museum Bad Frankenhausen",
      "latitude": 51.3653,
      "longitude": 11.1031,
      "type": "Memorial",
      "significance": 5,
      "description": "Houses Werner Tübke's monumental painting of the Early Bourgeois Revolution in Germany, one of the largest oil paintings in the world.",
      "century": 20,
      "image_url": null,
      "state": "Thuringia"
    },
    {
      "id": "de-thuringia-054",
      "name": "Schloss Kochberg",
      "latitude": 50.7761,
      "longitude": 11.3853,
      "type": "Castle",
      "significance": 3,
      "description": "The former estate of the von Stein family, famously visited by Goethe during his frequent travels to the region.",
      "century": 17,
      "image_url": null,
      "state": "Thuringia"
    },
    {
      "id": "de-thuringia-055",
      "name": "Oberes Schloss Greiz",
      "latitude": 50.6558,
      "longitude": 12.1953,
      "type": "Castle",
      "significance": 4,
      "description": "A majestic castle perched on a hill above Greiz, former residence of the Princes Reuss of the Elder Line.",
      "century": 12,
      "image_url": null,
      "state": "Thuringia"
    },
    {
      "id": "de-thuringia-056",
      "name": "Unteres Schloss Greiz",
      "latitude": 50.6547,
      "longitude": 12.1997,
      "type": "Castle",
      "significance": 3,
      "description": "Located in the valley by the Elster River, this palace showcases Neo-Gothic architecture and local history.",
      "century": 16,
      "image_url": null,
      "state": "Thuringia"
    },
    {
      "id": "de-thuringia-057",
      "name": "Klosterruine Veilsdorf",
      "latitude": 50.4072,
      "longitude": 10.8117,
      "type": "Monastery",
      "significance": 2,
      "description": "Remnants of a Benedictine monastery that played a role in the regional development of the Werra valley.",
      "century": 9,
      "image_url": null,
      "state": "Thuringia"
    },
    {
      "id": "de-thuringia-058",
      "name": "Landgrafenschlucht",
      "latitude": 50.9514,
      "longitude": 10.3161,
      "type": "Rock Formation",
      "significance": 3,
      "description": "A natural canyon near Eisenach featuring mossy rock walls and unique geological formations, adjacent to the Dragon's Gorge.",
      "century": 20,
      "image_url": null,
      "state": "Thuringia"
    },
    {
      "id": "de-thuringia-059",
      "name": "Spitterfall",
      "latitude": 50.7936,
      "longitude": 10.5847,
      "type": "Waterfall",
      "significance": 2,
      "description": "The highest natural waterfall in Thuringia, located on the Spitter stream within the Thuringian Forest near Tambach-Dietharz.",
      "century": 20,
      "image_url": null,
      "state": "Thuringia"
    },
    {
      "id": "de-thuringia-060",
      "name": "Grenzlandmuseum Eichsfeld",
      "latitude": 51.4811,
      "longitude": 10.2589,
      "type": "Memorial",
      "significance": 4,
      "description": "Located at the former border crossing Duderstadt/Worbis, this museum documents the history of German division in the Eichsfeld.",
      "century": 20,
      "image_url": null,
      "state": "Thuringia"
    }
  ]
}